$GPGSV,3,1,10,03,27,274,44,06,33,256,45,09,31,069,33,14,51,214,44*79
$GPGSV,3,2,10,15,13,047,37,18,63,049,48,19,26,304,41,21,48,139,43*78
$GPGSV,3,3,10,22,62,307,45,24,32,076,29,,,,,,,,*74
$GPGSA,A,3,22,21,18,06,09,03,24,14,19,,,,2.3,1.1,2.0*3C
$GPRMC,234709.000,A,3945.062,N,10513.221,W,4.9,53.1,251112,7.0,E*40
$GPGGA,234709.000,3945.06227,N,10513.22138,W,1,09,1.1,1764.44,M,-20.7,M,,*66
$GPVTG,53.1,T,60.0,M,4.9,N,9.1,K*4A
$GPGSV,3,1,10,03,27,274,44,06,33,256,44,09,31,069,34,14,51,214,44*7F
$GPGSV,3,2,10,15,13,047,36,18,63,049,48,19,26,304,41,21,48,139,42*78
$GPGSV,3,3,10,22,62,307,45,24,32,076,30,,,,,,,,*7C
$PSTMECH,22,7,21,7,18,7,06,7,09,7,03,7,24,7,14,7,19,7,15,4,00,0,00,0*5E
$GPRMC,234710.000,A,3945.064,N,10513.219,W,6.8,53.1,251112,7.0,E*46
$GPGGA,234710.000,3945.06364,N,10513.21906,W,1,09,1.1,1764.43,M,-20.7,M,,*69
$GPVTG,53.1,T,60.1,M,6.8,N,12.5,K*76
$GPGSV,3,1,10,03,27,274,43,06,33,256,44,09,31,069,33,14,51,214,43*78
$GPGSV,3,2,10,15,13,047,38,18,63,049,49,19,26,304,42,21,48,139,43*75
$GPGSV,3,3,10,22,62,307,45,24,32,076,28,,,,,,,,*75
$GPGSA,A,3,22,21,18,06,09,03,24,14,19,,,,2.3,1.1,2.0*3C
$GPRMC,234711.000,A,3945.065,N,10513.217,W,7.9,54.5,251112,7.0,E*4B
$GPGGA,234711.000,3945.06504,N,10513.21653,W,1,09,1.1,1764.30,M,-20.7,M,,*63
$GPVTG,54.5,T,61.4,M,7.9,N,14.6,K*74
$GPGSV,3,1,10,03,27,274,43,06,33,256,43,09,31,069,34,14,51,214,43*78
$GPGSV,3,2,10,15,13,047,38,18,63,049,48,19,26,304,38,21,48,139,42*78
$GPGSV,3,3,10,22,62,307,43,24,32,076,30,,,,,,,,*7A
$PSTMECH,22,7,21,7,18,7,06,7,09,7,03,7,24,7,14,7,19,7,15,4,00,0,00,0*5E
$GPRMC,234712.000,A,3945.067,N,10513.213,W,9.4,54.8,251112,7.0,E*40
$GPGGA,234712.000,3945.06670,N,10513.21347,W,1,09,1.1,1764.14,M,-20.7,M,,*66
$GPVTG,54.8,T,61.8,M,9.4,N,17.3,K*70
$GPGSV,3,1,10,03,27,274,41,06,33,256,43,09,31,069,35,14,52,214,42*79
$GPGSV,3,2,10,15,13,047,39,18,63,049,47,19,26,304,39,21,48,139,42*77
$GPGSV,3,3,10,22,62,307,44,24,32,076,32,,,,,,,,*7F
$GPGSA,A,3,22,21,18,06,09,03,24,14,19,,,,2.3,1.1,2.0*3C
$GPRMC,234713.000,A,3945.068,N,10513.211,W,9.8,55.0,251112,7.0,E*49
$GPGGA,234713.000,3945.06831,N,10513.21051,W,1,09,1.1,1763.90,M,-20.7,M,,*63
$GPVTG,55.0,T,62.0,M,9.8,N,18.1,K*73
$GPGSV,3,1,10,03,27,274,41,06,33,256,41,09,31,069,34,14,52,214,43*7B
$GPGSV,3,2,10,15,13,047,40,18,63,049,48,19,26,304,34,21,48,139,36*78
$GPGSV,3,3,10,22,62,307,45,24,32,076,30,,,,,,,,*7C
$PSTMECH,22,7,21,7,18,7,06,7,09,7,03,7,24,7,14,7,19,7,15,4,00,0,00,0*5E
$GPRMC,234714.000,A,3945.070,N,10513.207,W,10.3,55.3,251112,7.0,E*70
$GPGGA,234714.000,3945.07002,N,10513.20735,W,1,09,1.1,1763.54,M,-20.7,M,,*61
$GPVTG,55.3,T,62.3,M,10.3,N,19.1,41,06,33,256,41,09,31,069,34,14,52,214,42*7A
$GPGSV,3,2,10,15,13,047,40,18,63,049,48,19,26,304,32,21,48,139,33*7B
$GPGSV,3,3,10,22,62,307,42,24,32,076,33,,,,,,,,*78
$GPGSA,A,3,22,21,18,06,09,03,24,14,19,,,,2.3,1.1,2.0*3C
$GPRMC,234715.000,A,3945.072,N,10513.204,W,11.0,53.5,251112,7.0,E*72
$GPGGA,234715.000,3945.07198,N,10513.20410,W,1,09,1.1,1763.15,M,-20.7,M,,*63
$GPVTG,53.5,T,60.5,M,11.0,N,20.3,K*4F
$GPGSV,3,1,10,03,27,274,45,06,33,256,43,09,31,069,36,14,52,214,44*78
$GPGSV,3,2,10,15,13,047,38,18,63,049,48,19,26,304,28,21,48,139,31*7D
$GPGSV,3,3,10,22,62,307,39,24,32,076,32,,,,,,,,*75
$PSTMECH,22,7,21,7,18,7,06,7,09,7,03,7,24,7,14,7,19,7,15,4,00,0,00,0*5E
$GPRMC,234716.000,A,3945.074,N,10513.201,W,11.6,54.3,251112,7.0,E*75
$GPGGA,234716.000,3945.07397,N,10513.20055,W,1,09,1.1,1762.80,M,-20.7,M,,*65
$GPVTG,54.3,T,61.2,M,11.6,N,21.4,K*48
$GPGSV,3,1,10,03,27,274,43,06,32,255,45,09,31,068,41,14,52,215,42*7C
$GPGSV,3,2,10,15,13,047,28,18,63,050,47,19,26,303,43,21,47,140,41*77
$GPGSV,3,3,10,22,63,309,46,24,32,075,37,,,,,,,,*74
$GPGSA,A,3,22,21,18,06,09,03,24,14,19,,,,2.3,1.1,2.0*3C
$GPRMC,234850.000,A,3945.049,N,10513.055,W,0.1,0.0,251112,7.0,E*70
$GPGGA,234850.000,3945.04949,N,10513.05514,W,1,10,1.1,1750.81,M,-20.7,M,,*6D
$GPVTG,0.0,T,7.0,M,0.1,N,0.1,K*49
$GPGSV,3,1,10,03,27,274,43,06,32,255,45,09,31,068,41,14,52,215,42*7C
$GPGSV,3,2,10,15,13,047,27,18,63,050,47,19,26,303,43,21,47,140,40*79
$GPGSV,3,3,10,22,63,309,45,24,32,075,36,,,,,,,,*76
$PSTMECH,22,7,21,7,18,7,06,7,09,7,03,7,24,7,14,7,19,7,15,7,00,0,00,0*5D
$GPRMC,234851.000,A,3945.049,N,10513.055,W,0.1,0.0,251112,7.0,E*71
$GPGGA,234851.000,3945.04948,N,10513.05514,W,1,10,1.1,1750.81,M,-20.7,M,,*6D
$GPVTG,0.0,T,7.0,M,0.1,N,0.1,K*49
$GPGSV,3,1,10,03,27,274,43,06,32,255,45,09,31,068,42,14,52,215,42*7F
$GPGSV,3,2,10,15,13,047,28,18,63,050,47,19,26,303,43,21,47,140,40*76
$GPGSV,3,3,10,22,63,309,45,24,32,075,37,,,,,,,,*77
$GPGSA,A,3,22,21,18,06,09,03,24,14,19,15,,,2.0,1.1,1.7*3F
$GPRMC,234852.000,A,3945.049,N,10513.055,W,0.1,0.0,251112,7.0,E*72
$GPGGA,234852.000,3945.04948,N,10513.05516,W,1,10,1.1,1750.77,M,-20.7,M,,*65
$GPVTG,0.0,T,7.0,M,0.1,N,0.1,K*49
$GPGSV,3,1,10,03,27,274,43,06,32,255,45,09,31,068,40,14,52,215,42*7D
$GPGSV,3,2,10,15,13,047,27,18,63,050,47,19,26,303,43,21,47,140,40*79
$GPGSV,3,3,10,22,63,309,46,24,32,075,37,,,,,,,,*74
$PSTMECH,22,7,21,7,18,7,06,7,09,7,03,7,24,7,14,7,19,7,15,7,00,0,00,0*5D
$GPRMC,234853.000,A,3945.050,N,10513.055,W,0.1,0.0,251112,7.0,E*7B
$GPGGA,234853.000,3945.04950,N,10513.05515,W,1,10,1.1,1750.71,M,-20.7,M,,*68
$GPVTG,0.0,T,7.0,M,0.1,N,0.1,K*49
$GPGSV,3,1,10,03,27,274,42,06,32,255,44,09,31,068,40,14,52,215,43*7C
$GPGSV,3,2,10,15,13,047,29,18,63,050,47,19,26,303,43,21,47,140,39*79
$GPGSV,3,3,10,22,63,309,46,24,32,075,36,,,,,,,,*75
$GPGSA,A,3,22,21,18,06,09,03,24,14,19,15,,,2.0,1.1,1.7*3F
$GPRMC,234854.000,A,3945.050,N,10513.055,W,0.0,0.0,251112,7.0,E*7D
$GPGGA,234854.000,3945.04955,N,10513.05512,W,1,10,1.1,1750.71,M,-20.7,M,,*6D
$GPVTG,0.0,T,7.0,M,0.0,N,0.1,K*48
$GPGSV,3,1,10,03,27,274,43,06,32,255,44,09,31,068,40,14,52,215,43*7D
$GPGSV,3,2,10,15,13,047,29,18,63,050,47,19,26,303,43,21,47,140,39*79
$GPGSV,3,3,10,22,63,309,46,24,32,075,36,,,,,,,,*75
$PSTMECH,22,7,21,7,18,7,06,7,09,7,03,7,24,7,14,7,19,7,15,7,00,0,00,0*5D
$GPRMC,234855.000,A,3945.050,N,10513.055,W,0.0,0.0,251112,7.0,E*7C
$GPGGA,234855.000,3945.04958,N,10513.05510,W,1,10,1.1,1750.73,M,-20.7,M,,*61
$GPVTG,0.0,T,7.0,M,0.0,N,0.1,K*48
$GPGSV,3,1,10,03,27,274,43,06,32,255,45,09,31,068,40,14,52,215,43*7C
$GPGSV,3,2,10,15,13,047,29,18,63,050,47,19,26,303,44,21,47,140,39*7E
$GPGSV,3,3,10,22,63,309,46,24,32,075,35,,,,,,,,*76
$GPGSA,A,3,22,21,18,06,09,03,24,14,19,15,,,2.0,1.1,1.7*3F
$GPRMC,234856.000,A,3945.050,N,10513.055,W,0.1,0.0,251112,7.0,E*7E
$GPGGA,234856.000,3945.04957,N,10513.05508,W,1,10,1.1,1750.78,M,-20.7,M,,*6F
$GPVTG,0.0,T,7.0,M,0.1,N,0.1,K*49
$GPGSV,3,1,10,03,27,274,43,06,32,255,45,09,31,068,40,14,52,215,43*7C
$GPGSV,3,2,10,15,13,047,29,18,63,050,47,19,26,303,43,21,47,140,38*78
$GPGSV,3,3,10,22,63,309,46,24,32,075,35,,,,,,,,*76
$PSTMECH,22,7,21,7,18,7,06,7,09,7,03,7,24,7,14,7,19,7,15,7,00,0,00,0*5D
$GPRMC,234857.000,A,3945.050,N,10513.055,W,0.0,0.0,251112,7.0,E*7E
$GPGGA,234857.000,3945.04959,N,10513.05507,W,1,10,1.1,1750.83,M,-20.7,M,,*6B
$GPVTG,0.0,T,7.0,M,0.0,N,0.1,K*48
$GPGSV,3,1,10,03,27,274,43,06,32,255,46,09,31,068,39,14,52,215,42*70
$GPGSV,3,2,10,15,13,047,29,18,63,050,47,19,26,303,43,21,47,140,38*78
$GPGSV,3,3,10,22,63,309,45,24,32,075,35,,,,,,,,*75
$GPGSA,A,3,22,21,18,06,09,03,24,14,19,15,,,2.0,1.1,1.7*3F
$GPRMC,234858.000,A,3945.050,N,10513.055,W,0.1,0.0,251112,7.0,E*70
$GPGGA,234858.000,3945.04960,N,10513.05501,W,1,10,1.1,1750.86,M,-20.7,M,,*6D
$GPVTG,0.0,T,7.0,M,0.1,N,0.1,K*49
$GPGSV,3,1,10,03,27,273,43,06,32,255,46,09,31,068,40,14,52,215,43*78
$GPGSV,3,2,10,15,13,047,29,18,63,050,47,19,26,303,43,21,47,140,38*78
$GPGSV,3,3,10,22,63,309,46,24,32,075,35,,,,,,,,*76
$PSTMECH,22,7,21,7,18,7,06,7,09,7,03,7,24,7,14,7,19,7,15,7,00,0,00,0*5D
$GPRMC,234859.000,A,3945.050,N,10513.055,W,0.0,0.0,251112,7.0,E*70
$GPGGA,234859.000,3945.04962,N,10513.05496,W,1,10,1.1,1750.94,M,-20.7,M,,*62
$GPVTG,0.0,T,7.0,M,0.0,N,0.1,K*48
$GPGSV,3,1,10,03,27,273,43,06,32,255,45,09,31,068,39,14,52,215,42*74
$GPGSV,3,2,10,15,13,047,29,18,63,050,47,19,26,303,43,21,47,140,37*77
$GPGSV,3,3,10,22,63,309,46,24,32,075,34,,,,,,,,*77
$GPGSA,A,3,22,21,18,06,09,03,24,14,19,15,,,2.0,1.1,1.7*3F
$GPRMC,234900.000,A,3945.050,N,10513.055,W,0.1,0.0,251112,7.0,E*7C
$GPGGA,234900.000,3945.04960,N,10513.05486,W,1,10,1.1,1750.93,M,-20.7,M,,*6B
$GPVTG,0.0,T,7.0,M,0.1,N,0.2,K*4A
$GPGSV,3,1,10,03,27,273,43,06,32,255,46,09,31,068,39,14,52,215,43*76
$GPGSV,3,2,10,15,13,047,30,18,63,050,47,19,26,303,44,21,47,140,39*76
$GPGSV,3,3,10,22,63,309,45,24,32,075,34,,,,,,,,*74
$PSTMECH,22,7,21,7,18,7,06,7,09,7,03,7,24,7,14,7,19,7,15,7,00,0,00,0*5D
$GPRMC,234901.000,A,3945.050,N,10513.055,W,0.1,0.0,251112,7.0,E*7D
$GPGGA,234901.000,3945.04959,N,10513.05476,W,1,10,1.1,1750.93,M,-20.7,M,,*6F
$GPVTG,0.0,T,7.0,M,0.1,N,0.2,K*4A
$GPGSV,3,1,10,03,27,273,42,06,32,255,45,09,31,068,39,14,52,215,43*74
$GPGSV,3,2,10,15,13,047,29,18,63,050,47,19,26,303,44,21,47,140,40*70
$GPGSV,3,3,10,22,63,309,45,24,32,075,34,,,,,,,,*74
$GPGSA,A,3,22,21,18,06,09,03,24,14,19,15,,,2.0,1.1,1.7*3F
$GPRMC,234902.000,A,3945.050,N,10513.055,W,0.1,0.0,251112,7.0,E*7E
$GPGGA,234902.000,3945.04957,N,10513.05462,W,1,10,1.1,1750.99,M,-20.7,M,,*6D
$GPVTG,0.0,T,7.0,M,0.1,N,0.2,K*4A
$GPGSV,3,1,10,03,27,273,43,06,32,255,44,09,31,068,39,14,52,215,43*74
$GPGSV,3,2,10,15,13,047,30,18,63,050,48,19,26,303,43,21,47,140,41*71
$GPGSV,3,3,10,22,63,309,45,24,32,075,35,,,,,,,,*75
$PSTMECH,22,7,21,7,18,7,06,7,09,7,03,7,24,7,14,7,19,7,15,7,00,0,00,0*5D
$GPRMC,234903.000,A,3945.050,N,10513.055,W,0.0,0.0,251112,7.0,E*7E
$GPGGA,234903.000,3945.04957,N,10513.05453,W,1,10,1.1,1751.02,M,-20.7,M,,*6D
$GPVTG,0.0,T,7.0,M,0.0,N,0.1,K*48
$GPGSV,3,1,10,03,27,273,43,06,32,255,45,09,31,068,39,14,52,215,42*74
$GPGSV,3,2,10,15,13,047,30,18,63,050,48,19,26,303,43,21,47,140,40*70
$GPGSV,3,3,10,22,63,309,45,24,32,075,38,,,,,,,,*78
$GPGSA,A,3,22,21,18,06,09,03,24,14,19,15,,,2.0,1.1,1.7*3F
$GPRMC,234904.000,A,3945.050,N,10513.054,W,0.8,53.9,251112,7.0,E*4F
$GPGGA,234904.000,3945.04983,N,10513.05403,W,1,10,1.1,1751.03,M,-20.7,M,,*67
$GPVTG,53.9,T,60.9,M,0.8,N,1.6,K*41
$GPGSV,3,1,10,03,27,273,43,06,32,255,45,09,31,068,39,14,52,215,41*77
$GPGSV,3,2,10,15,13,047,32,18,63,050,48,19,26,303,44,21,47,140,39*7B
$GPGSV,3,3,10,22,63,309,45,24,32,075,37,,,,,,,,*77
$PSTMECH,22,7,21,7,18,7,06,7,09,7,03,7,24,7,14,7,19,7,15,7,00,0,00,0*5D
$GPRMC,234905.000,A,3945.050,N,10513.053,W,1.4,53.1,251112,7.0,E*4C
$GPGGA,234905.000,3945.05012,N,10513.05347,W,1,10,1.1,1751.05,M,-20.7,M,,*67
$GPVTG,53.1,T,60.1,M,1.4,N,2.6,K*4F
$GPGSV,3,1,10,03,27,273,43,06,32,255,45,09,31,068,39,14,52,215,41*77
$GPGSV,3,2,10,15,13,047,31,18,63,050,47,19,26,303,43,21,47,140,38*71
$GPGSV,3,3,10,22,63,309,45,24,32,075,37,,,,,,,,*77
$GPGSA,A,3,22,21,18,06,09,03,24,14,19,15,,,2.0,1.1,1.7*3F
$GPRMC,234906.000,A,3945.051,N,10513.052,W,4.0,58.3,251112,7.0,E*47
$GPGGA,234906.000,3945.05094,N,10513.05163,W,1,10,1.1,1751.03,M,-20.7,M,,*68
$GPVTG,58.3,T,65.3,M,4.0,N,7.4,K*47
$GPGSV,3,1,10,03,27,273,44,06,32,255,46,09,31,068,43,14,52,215,43*7C
$GPGSV,3,2,10,15,13,047,29,18,63,050,47,19,26,303,43,21,47,140,38*78
$GPGSV,3,3,10,22,63,309,46,24,32,075,40,,,,,,,,*74
$PSTMECH,22,7,21,7,18,7,06,7,09,7,03,7,24,7,14,7,19,7,15,7,00,0,00,0*5D
$GPRMC,234907.000,A,3945.051,N,10513.049,W,5.7,75.2,251112,7.0,E*44
$GPGGA,234907.000,3945.05120,N,10513.04912,W,1,10,1.1,1750.95,M,-20.7,M,,*66
$GPVTG,75.2,T,82.2,M,5.7,N,10.5,K*70
$GPGSV,3,1,10,03,27,273,45,06,32,255,45,09,31,068,40,14,52,215,41*7F
$GPGSV,3,2,10,15,13,047,31,18,63,050,47,19,26,303,44,21,47,140,41*78
$GPGSV,3,3,10,22,63,309,44,24,32,075,40,,,,,,,,*76
$GPGSA,A,3,22,21,18,06,09,03,24,14,19,15,,,2.0,1.1,1.7*3F
$GPRMC,234908.000,A,3945.050,N,10513.047,W,6.3,98.2,251112,7.0,E*40
$GPGGA,234908.000,3945.05044,N,10513.04663,W,1,10,1.1,1750.74,M,-20.7,M,,*6C
$GPVTG,98.2,T,105.1,M,6.3,N,11.7,K*4A
$GPGSV,3,1,10,03,27,273,46,06,32,255,46,09,31,068,42,14,52,215,40*7C
$GPGSV,3,2,10,15,13,047,31,18,63,050,44,19,26,303,44,21,47,140,40*7A
$GPGSV,3,3,10,22,63,309,45,24,32,075,39,,,,,,,,*79
$PSTMECH,22,7,21,7,18,7,06,7,09,7,03,7,24,7,14,7,19,7,15,7,00,0,00,0*5D
$GPRMC,234909.000,A,3945.049,N,10513.045,W,6.7,119.9,251112,7.0,E*7C
$GPGGA,234909.000,3945.04898,N,10513.04467,W,1,10,1.1,1750.74,M,-20.7,M,,*63
$GPVTG,119.9,T,126.8,M,6.7,N,12.4,K*75
$GPGSV,3,1,10,03,27,273,46,06,32,255,40,09,31,068,42,14,52,215,41*7B
$GPGSV,3,2,10,15,13,047,32,18,63,050,44,19,26,303,44,21,47,140,40*79
$GPGSV,3,3,10,22,63,309,46,24,32,075,40,,,,,,,,*74
$GPGSA,A,3,22,21,18,06,09,03,24,14,19,15,,,2.0,1.1,1.7*3F
$GPRMC,234910.000,A,3945.047,N,10513.043,W,6.7,137.4,251112,7.0,E*7D
$GPGGA,234910.000,3945.04727,N,10513.04333,W,1,10,1.1,1750.79,M,-20.7,M,,*6B
$GPVTG,137.4,T,144.4,M,6.7,N,12.4,K*7C
$GPGSV,3,1,10,03,27,273,41,06,32,255,41,09,31,068,43,14,52,215,40*7D
$GPGSV,3,2,10,15,13,047,31,18,63,050,44,19,26,303,45,21,47,140,39*75
$GPGSV,3,3,10,22,63,309,47,24,32,075,40,,,,,,,,*75
$PSTMECH,22,7,21,7,18,7,06,7,09,7,03,7,24,7,14,7,19,7,15,7,00,0,00,0*5D
$GPRMC,234911.000,A,3945.046,N,10513.042,W,6.5,139.6,251112,7.0,E*72
$GPGGA,234911.000,3945.04586,N,10513.04189,W,1,10,1.1,1751.00,M,-20.7,M,,*6F
$GPVTG,139.6,T,146.6,M,6.5,N,12.1,K*77
$GPGSV,3,1,10,03,27,273,37,06,32,255,43,09,31,068,43,14,52,215,39*70
$GPGSV,3,2,10,15,13,047,27,18,63,050,44,19,26,303,46,21,47,140,40*7F
$GPGSV,3,3,10,22,63,309,47,24,32,075,41,,,,,,,,*74
$GPGSA,A,3,22,21,18,06,09,03,24,14,19,15,,,2.0,1.1,1.7*3F
$GPRMC,234912.000,A,3945.045,N,10513.041,W,6.1,141.2,251112,7.0,E*7E
$GPGGA,234912.000,3945.04455,N,10513.04064,W,1,10,1.1,1751.19,M,-20.7,M,,*69
$GPVTG,141.2,T,148.2,M,6.1,N,11.4,K*74
$GPGSV,3,1,10,03,27,273,39,06,32,255,41,09,31,068,44,14,52,215,38*7A
$GPGSV,3,2,10,15,13,047,25,18,63,050,45,19,26,303,46,21,47,140,40*7C
$GPGSV,3,3,10,22,63,309,46,24,32,075,42,,,,,,,,*76
$PSTMECH,22,7,21,7,18,7,06,7,09,7,03,7,24,7,14,7,19,7,15,7,00,0,00,0*5D
$GPRMC,234913.000,A,3945.043,N,10513.039,W,7.0,142.2,251112,7.0,E*75
$GPGGA,234913.000,3945.04285,N,10513.03902,W,1,10,1.1,1751.45,M,-20.7,M,,*64
$GPVTG,142.2,T,149.1,M,7.0,N,13.0,K*73
$GPGSV,3,1,10,03,27,273,39,06,32,255,42,09,31,068,44,14,52,215,38*79
$GPGSV,3,2,10,15,13,047,00,18,63,050,45,19,26,303,46,21,47,140,40*7B
$GPGSV,3,3,10,22,63,309,46,24,32,075,43,,,,,,,,*77
$GPGSA,A,3,22,21,18,06,09,03,24,14,19,15,,,2.0,1.1,1.7*3F
$GPRMC,234914.000,A,3945.041,N,10513.037,W,7.4,142.3,251112,7.0,E*7B
$GPGGA,234914.000,3945.04115,N,10513.03738,W,1,09,1.1,1751.78,M,-20.7,M,,*68
$GPVTG,142.3,T,149.3,M,7.4,N,13.8,K*7C
$GPGSV,3,1,10,03,27,273,41,06,32,255,42,09,31,068,44,14,52,215,38*76
$GPGSV,3,2,10,15,13,047,00,18,63,050,45,19,26,303,47,21,47,140,40*7A
$GPGSV,3,3,10,22,63,309,46,24,32,075,42,,,,,,,,*76
$PSTMECH,22,7,21,7,18,7,06,7,09,7,03,7,24,7,14,7,19,7,00,0,00,0,00,0*5E
$GPRMC,234915.000,A,3945.039,N,10513.036,W,7.5,142.6,251112,7.0,E*70
$GPGGA,234915.000,3945.03947,N,10513.03576,W,1,09,1.1,1752.03,M,-20.7,M,,*66
$GPVTG,142.6,T,149.6,M,7.5,N,14.0,K*72
$GPGSV,3,1,10,03,27,273,40,06,32,255,43,09,31,068,44,14,52,215,37*79
$GPGSV,3,2,10,15,13,047,34,18,63,050,46,19,26,303,46,21,47,140,40*7F
$GPGSV,3,3,10,22,63,309,44,24,32,075,42,,,,,,,,*74
$GPGSA,A,3,22,21,18,06,09,03,24,14,19,,,,2.3,1.1,2.0*3C
$GPRMC,234916.000,A,3945.038,N,10513.034,W,7.8,143.7,251112,7.0,E*7D
$GPGGA,234916.000,3945.03767,N,10513.03411,W,1,10,1.1,1752.22,M,-20.7,M,,*62
$GPVTG,143.7,T,150.7,M,7.8,N,14.5,K*73
$GPGSV,3,1,10,03,27,273,43,06,32,255,42,09,31,068,44,14,52,215,38*74
$GPGSV,3,2,10,15,13,047,36,18,63,050,45,19,26,303,46,21,47,140,40*7E
$GPGSV,3,3,10,22,63,309,44,24,32,075,42,,,,,,,,*74
$PSTMECH,22,7,21,7,18,7,06,7,09,7,03,7,24,7,14,7,19,7,15,7,00,0,00,0*5D
$GPRMC,234917.000,A,3945.036,N,10513.033,W,7.8,144.3,251112,7.0,E*76
$GPGGA,234917.000,3945.03592,N,10513.03250,W,1,10,1.1,1752.49,M,-20.7,M,,*65
$GPVTG,144.3,T,151.3,M,7.8,N,14.5,K*75
$GPGSV,3,1,10,03,27,273,41,06,32,255,43,09,31,068,45,14,52,215,39*77
$GPGSV,3,2,10,15,13,047,37,18,63,050,45,19,26,303,46,21,47,140,41*7E
$GPGSV,3,3,10,22,63,309,44,24,32,075,42,,,,,,,,*74
$GPGSA,A,3,22,21,18,06,09,03,24,14,19,15,,,2.0,1.1,1.7*3F
$GPRMC,234918.000,A,3945.034,N,10513.031,W,7.7,144.0,251112,7.0,E*75
$GPGGA,234918.000,3945.03426,N,10513.03093,W,1,10,1.1,1752.75,M,-20.7,M,,*66
$GPVTG,144.0,T,151.0,M,7.7,N,14.2,K*7D
$GPGSV,3,1,10,03,27,273,42,06,32,255,43,09,31,068,44,14,52,215,38*74
$GPGSV,3,2,10,15,13,047,38,18,63,050,45,19,26,303,47,21,47,140,40*71
$GPGSV,3,3,10,22,63,309,45,24,32,075,42,,,,,,,,*75
$PSTMECH,22,7,21,7,18,7,06,7,09,7,03,7,24,7,14,7,19,7,15,7,00,0,00,0*5D
$GPRMC,234919.000,A,3945.033,N,10513.029,W,7.7,143.8,251112,7.0,E*75
$GPGGA,234919.000,3945.03258,N,10513.02928,W,1,10,1.1,1752.89,M,-20.7,M,,*63
$GPVTG,143.8,T,150.8,M,7.7,N,14.3,K*7A
$GPGSV,3,1,10,03,27,273,42,06,32,255,43,09,31,068,43,14,52,215,37*7C
$GPGSV,3,2,10,15,13,047,40,18,63,050,45,19,26,303,46,21,47,140,39*71
$GPGSV,3,3,10,22,63,309,44,24,32,075,42,,,,,,,,*74
$GPGSA,A,3,22,21,18,06,09,03,24,14,19,15,,,2.0,1.1,1.7*3F
$GPRMC,234920.000,A,3945.031,N,10513.028,W,7.4,143.2,251112,7.0,E*75
$GPGGA,234920.000,3945.03115,N,10513.02756,W,1,10,1.1,1752.73,M,-20.7,M,,*61
$GPVTG,143.2,T,150.2,M,7.4,N,13.6,K*7B
$GPGSV,3,1,10,03,27,273,42,06,32,255,43,09,31,068,43,14,53,215,37*7D
$GPGSV,3,2,10,15,13,047,41,18,63,050,46,19,26,303,46,21,47,140,39*73
$GPGSV,3,3,10,22,63,309,43,24,32,075,42,,,,,,,,*73
$PSTMECH,22,7,21,7,18,7,06,7,09,7,03,7,24,7,14,7,19,7,15,7,00,0,00,0*5D
$GPRMC,234921.000,A,3945.030,N,10513.026,W,6.4,143.9,251112,7.0,E*71
$GPGGA,234921.000,3945.02997,N,10513.02630,W,1,10,1.1,1752.46,M,-20.7,M,,*64
$GPVTG,143.9,T,150.9,M,6.4,N,11.8,K*76
$GPGSV,3,1,10,03,27,273,41,06,32,255,43,09,31,068,43,14,53,215,39*70
$GPGSV,3,2,10,15,13,047,34,18,63,050,45,19,26,303,45,21,47,140,39*71
$GPGSV,3,3,10,22,63,309,43,24,32,075,40,,,,,,,,*71
$GPGSA,A,3,22,21,18,06,09,03,24,14,19,15,,,2.0,1.1,1.7*3F
$GPRMC,234922.000,A,3945.029,N,10513.025,W,5.6,144.2,251112,7.0,E*74
$GPGGA,234922.000,3945.02884,N,10513.02525,W,1,10,1.1,1752.49,M,-20.7,M,,*6C
$GPVTG,144.2,T,151.2,M,5.6,N,10.4,K*7C
$GPGSV,3,1,10,03,27,273,40,06,32,255,44,09,31,068,42,14,53,215,40*79
$GPGSV,3,2,10,15,12,047,39,18,63,050,45,19,26,303,46,21,47,140,40*70
$GPGSV,3,3,10,22,63,309,44,24,32,075,41,,,,,,,,*77
$PSTMECH,22,7,21,7,18,7,06,7,09,7,03,7,24,7,14,7,19,7,15,7,00,0,00,0*5D
$GPRMC,234923.000,A,3945.028,N,10513.024,W,4.7,138.7,251112,7.0,E*7B
$GPGGA,234923.000,3945.02809,N,10513.02416,W,1,10,1.1,1752.25,M,-20.7,M,,*63
$GPVTG,138.7,T,145.7,M,4.7,N,8.8,K*47
$GPGSV,3,1,10,03,27,273,42,06,32,255,43,09,31,068,43,14,53,215,41*7C
$GPGSV,3,2,10,15,12,047,38,18,63,050,45,19,26,303,44,21,47,140,41*72
$GPGSV,3,3,10,22,63,309,45,24,32,075,41,,,,,,,,*76
$GPGSA,A,3,22,21,18,06,09,03,24,14,19,15,,,2.0,1.1,1.7*3F
$GPRMC,234924.000,A,3945.027,N,10513.022,W,5.5,126.1,251112,7.0,E*7F
$GPGGA,234924.000,3945.02731,N,10513.02223,W,1,10,1.1,1752.01,M,-20.7,M,,*66
$GPVTG,126.1,T,133.1,M,5.5,N,10.2,K*79
$GPGSV,3,1,10,03,27,273,46,06,32,255,36,09,31,068,42,14,53,215,40*7A
$GPGSV,3,2,10,15,12,047,34,18,63,050,44,19,26,303,46,21,47,140,38*73
$GPGSV,3,3,10,22,63,309,45,24,32,075,41,,,,,,,,*76
$PSTMECH,22,7,21,7,18,7,06,7,09,7,03,7,24,7,14,7,19,7,15,7,00,0,00,0*5D
$GPRMC,234925.000,A,3945.026,N,10513.020,W,6.6,118.1,251112,7.0,E*70
$GPGGA,234925.000,3945.02649,N,10513.01981,W,1,10,1.1,1751.90,M,-20.7,M,,*62
$GPVTG,118.1,T,125.1,M,6.6,N,12.2,K*71
$GPGSV,3,1,10,03,27,273,44,06,32,255,44,09,31,068,41,14,53,215,38*71
$GPGSV,3,2,10,15,12,047,38,18,63,050,45,19,26,303,45,21,47,140,40*72
$GPGSV,3,3,10,22,63,309,44,24,32,075,39,,,,,,,,*78
$GPGSA,A,3,22,21,18,06,09,03,24,14,19,15,,,2.0,1.1,1.7*3F
$GPRMC,234926.000,A,3945.027,N,10513.017,W,6.6,98.2,251112,7.0,E*4C
$GPGGA,234926.000,3945.02673,N,10513.01726,W,1,10,1.1,1751.48,M,-20.7,M,,*6E
$GPVTG,98.2,T,105.2,M,6.6,N,12.2,K*4A
$GPGSV,3,1,10,03,27,273,45,06,32,255,44,09,31,068,41,14,53,215,40*7F
$GPGSV,3,2,10,15,12,047,39,18,63,050,46,19,26,303,44,21,47,140,41*70
$GPGSV,3,3,10,22,63,309,44,24,32,075,41,,,,,,,,*77
$PSTMECH,22,7,21,7,18,7,06,7,09,7,03,7,24,7,14,7,19,7,15,7,00,0,00,0*5D
$GPRMC,234927.000,A,3945.028,N,10513.015,W,7.1,79.6,251112,7.0,E*4D
$GPGGA,234927.000,3945.02758,N,10513.01460,W,1,10,1.1,1751.27,M,-20.7,M,,*6F
$GPVTG,79.6,T,86.5,M,7.1,N,13.1,K*78
$GPGSV,3,1,10,03,27,273,44,06,32,255,45,09,31,068,43,14,53,215,43*7E
$GPGSV,3,2,10,15,12,047,35,18,63,050,47,19,26,303,43,21,47,140,38*74
$GPGSV,3,3,10,22,63,309,44,24,32,075,41,,,,,,,,*77
$GPGSA,A,3,22,21,18,06,09,03,24,14,19,15,,,2.0,1.1,1.7*3F
$GPRMC,234928.000,A,3945.028,N,10513.013,W,5.6,67.9,251112,7.0,E*41
$GPGGA,234928.000,3945.02839,N,10513.01319,W,1,10,1.1,1751.06,M,-20.7,M,,*62
$GPVTG,67.9,T,74.9,M,5.6,N,10.4,K*7A
$GPGSV,3,1,10,03,27,273,44,06,32,255,45,09,31,068,41,14,53,215,44*7B
$GPGSV,3,2,10,15,12,047,34,18,62,051,48,19,26,303,44,21,47,140,39*7C
$GPGSV,3,3,10,22,63,309,44,24,32,075,37,,,,,,,,*76
$PSTMECH,22,7,21,7,18,7,06,7,09,7,03,7,24,7,14,7,19,7,15,7,00,0,00,0*5D
$GPRMC,234929.000,A,3945.029,N,10513.013,W,3.2,65.3,251112,7.0,E*4B
$GPGGA,234929.000,3945.02874,N,10513.01271,W,1,10,1.1,1750.77,M,-20.7,M,,*62
$GPVTG,65.3,T,72.3,M,3.2,N,5.9,K*45
$GPGSV,3,1,10,03,27,273,43,06,32,255,45,09,31,068,43,14,53,215,44*7E
$GPGSV,3,2,10,15,12,047,38,18,62,051,48,19,26,303,44,21,47,140,40*7E
$GPGSV,3,3,10,22,63,309,43,24,32,075,35,,,,,,,,*73
$GPGSA,A,3,22,21,18,06,09,03,24,14,19,15,,,2.0,1.1,1.7*3F
$GPRMC,234930.000,A,3945.029,N,10513.013,W,1.2,67.5,251112,7.0,E*45
$GPGGA,234930.000,3945.02880,N,10513.01279,W,1,10,1.1,1750.51,M,-20.7,M,,*6D
$GPVTG,67.5,T,74.5,M,1.2,N,2.3,K*4E
$GPGSV,3,1,10,03,27,273,42,06,32,255,46,09,31,068,43,14,53,215,44*7C
$GPGSV,3,2,10,15,12,047,39,18,62,051,48,19,26,303,45,21,47,140,40*7E
$GPGSV,3,3,10,22,63,309,43,24,32,075,36,,,,,,,,*70
$PSTMECH,22,7,21,7,18,7,06,7,09,7,03,7,24,7,14,7,19,7,15,7,00,0,00,0*5D
$GPRMC,234931.000,A,3945.029,N,10513.013,W,0.1,0.0,251112,7.0,E*72
$GPGGA,234931.000,3945.02873,N,10513.01313,W,1,10,1.1,1750.35,M,-20.7,M,,*6F
$GPVTG,0.0,T,7.0,M,0.1,N,0.2,K*4A
$GPGSV,3,1,10,03,27,273,42,06,32,255,45,09,31,068,43,14,53,215,44*7F
$GPGSV,3,2,10,15,12,047,39,18,62,051,47,19,26,303,45,21,47,140,40*71
$GPGSV,3,3,10,22,63,309,43,24,32,075,36,,,,,,,,*70
$GPGSA,A,3,22,21,18,06,09,03,24,14,19,15,,,2.0,1.1,1.7*3F
$GPRMC,234932.000,A,3945.029,N,10513.013,W,0.1,0.0,251112,7.0,E*71
$GPGGA,234932.000,3945.02879,N,10513.01307,W,1,10,1.1,1750.24,M,-20.7,M,,*63
$GPVTG,0.0,T,7.0,M,0.1,N,0.2,K*4A
$GPGSV,3,1,10,03,27,273,43,06,32,255,46,09,31,068,43,14,53,215,45*7C
$GPGSV,3,2,10,15,12,047,38,18,62,051,48,19,26,303,45,21,47,140,41*7E
$GPGSV,3,3,10,22,63,309,43,24,32,075,37,,,,,,,,*71
$PSTMECH,22,7,21,7,18,7,06,7,09,7,03,7,24,7,14,7,19,7,15,7,00,0,00,0*5D
$GPRMC,234933.000,A,3945.029,N,10513.013,W,0.1,0.0,251112,7.0,E*70
$GPGGA,234933.000,3945.02881,N,10513.01306,W,1,10,1.1,1750.14,M,-20.7,M,,*67
$GPVTG,0.0,T,7.0,M,0.1,N,0.1,K*49
$GPGSV,3,1,10,03,27,273,43,06,32,255,47,09,31,068,43,14,53,215,44*7C
$GPGSV,3,2,10,15,12,047,39,18,62,051,48,19,26,303,45,21,47,140,41*7F
$GPGSV,3,3,10,22,63,309,44,24,32,075,37,,,,,,,,*76
$GPGSA,A,3,22,21,18,06,09,03,24,14,19,15,,,2.0,1.1,1.7*3F
$GPRMC,234934.000,A,3945.029,N,10513.013,W,0.0,0.0,251112,7.0,E*76
$GPGGA,234934.000,3945.02884,N,10513.01304,W,1,10,1.1,1750.06,M,-20.7,M,,*64
$GPVTG,0.0,T,7.0,M,0.0,N,0.1,K*48
$GPGSV,3,1,10,03,27,273,44,06,32,255,47,09,31,068,41,14,53,215,43*7E
$GPGSV,3,2,10,15,12,047,39,18,62,051,48,19,26,303,43,21,46,140,41*78
$GPGSV,3,3,10,22,63,309,44,24,32,075,36,,,,,,,,*77
$PSTMECH,22,7,21,7,18,7,06,7,09,7,03,7,24,7,14,7,19,7,15,7,00,0,00,0*5D
$GPRMC,234935.000,A,3945.029,N,10513.012,W,1.7,67.3,251112,7.0,E*42
$GPGGA,234935.000,3945.02917,N,10513.01210,W,1,10,1.1,1749.90,M,-20.7,M,,*6D
$GPVTG,67.3,T,74.2,M,1.7,N,3.1,K*49
$GPGSV,3,1,10,03,27,273,45,06,32,255,46,09,31,068,43,14,53,215,42*7D
$GPGSV,3,2,10,15,12,047,34,18,62,051,48,19,26,303,44,21,46,140,40*73
$GPGSV,3,3,10,22,63,309,43,24,32,075,39,,,,,,,,*7F
$GPGSA,A,3,22,21,18,06,09,03,24,14,19,15,,,2.0,1.1,1.7*3F
$GPRMC,234936.000,A,3945.030,N,10513.009,W,6.4,74.2,251112,7.0,E*44
$GPGGA,234936.000,3945.02988,N,10513.00880,W,1,10,1.1,1749.73,M,-20.7,M,,*67
$GPVTG,74.2,T,81.2,M,6.4,N,11.8,K*7E
$GPGSV,3,1,10,03,27,273,46,06,32,255,45,09,31,068,41,14,53,215,40*7D
$GPGSV,3,2,10,15,12,047,40,18,62,051,46,19,26,303,43,21,46,140,42*7B
$GPGSV,3,3,10,22,63,310,44,24,32,075,40,,,,,,,,*7E
$PSTMECH,22,7,21,7,18,7,06,7,09,7,03,7,24,7,14,7,19,7,15,7,00,0,00,0*5D
$GPRMC,234937.000,A,3945.029,N,10513.006,W,7.4,99.8,251112,7.0,E*4A
$GPGGA,234937.000,3945.02900,N,10513.00593,W,1,10,1.1,1749.40,M,-20.7,M,,*69
$GPVTG,99.8,T,106.8,M,7.4,N,13.6,K*4E
$GPGSV,3,1,10,03,27,273,46,06,32,255,43,09,31,068,42,14,53,215,41*79
$GPGSV,3,2,10,15,12,047,39,18,62,051,43,19,26,303,45,21,46,140,40*74
$GPGSV,3,3,10,22,63,310,46,24,32,075,39,,,,,,,,*72
$GPGSA,A,3,22,21,18,06,09,03,24,14,19,15,,,2.0,1.1,1.7*3F
$GPRMC,234938.000,A,3945.027,N,10513.003,W,9.0,122.4,251112,7.0,E*79
$GPGGA,234938.000,3945.02698,N,10513.00314,W,1,10,1.1,1749.50,M,-20.7,M,,*60
$GPVTG,122.4,T,129.4,M,9.0,N,16.6,K*7D
$GPGSV,3,1,10,03,27,273,45,06,32,255,39,09,31,068,43,14,53,215,41*76
$GPGSV,3,2,10,15,12,047,41,18,62,051,45,19,26,303,43,21,46,140,39*75
$GPGSV,3,3,10,22,63,310,47,24,32,075,39,,,,,,,,*73
$PSTMECH,22,7,21,7,18,7,06,7,09,7,03,7,24,7,14,7,19,7,15,7,00,0,00,0*5D
$GPRMC,234939.000,A,3945.024,N,10513.000,W,10.7,133.6,251112,7.0,E*45
$GPGGA,234939.000,3945.02440,N,10513.00031,W,1,10,1.1,1749.54,M,-20.7,M,,*66
$GPVTG,133.6,T,140.6,M,10.7,N,19.9,K*4D
$GPGSV,3,1,10,03,27,273,40,06,32,255,35,09,31,068,43,14,53,215,40*7E
$GPGSV,3,2,10,15,12,047,42,18,62,051,44,19,26,303,45,21,46,140,39*71
$GPGSV,3,3,10,22,63,310,47,24,32,075,40,,,,,,,,*7D
$GPGSA,A,3,22,21,18,06,09,03,24,14,19,15,,,2.0,1.1,1.7*3F
$GPRMC,234940.000,A,3945.022,N,10512.997,W,12.5,136.5,251112,7.0,E*4D
$GPGGA,234940.000,3945.02156,N,10512.99702,W,1,10,1.1,1749.59,M,-20.7,M,,*61
$GPVTG,136.5,T,143.5,M,12.5,N,23.1,K*4A
$GPGSV,3,1,10,03,27,273,38,06,32,255,39,09,31,068,43,14,53,215,39*73
$GPGSV,3,2,10,15,12,047,42,18,62,051,44,19,26,303,45,21,46,140,38*70
$GPGSV,3,3,10,22,63,310,47,24,32,074,40,,,,,,,,*7C
$PSTMECH,22,7,21,7,18,7,06,7,09,7,03,7,24,7,14,7,19,7,15,7,00,0,00,0*5D
$GPRMC,234941.000,A,3945.018,N,10512.993,W,14.2,137.7,251112,7.0,E*43
$GPGGA,234941.000,3945.01835,N,10512.99333,W,1,10,1.1,1749.67,M,-20.7,M,,*64
$GPVTG,137.7,T,144.6,M,14.2,N,26.4,K*4C
$GPGSV,3,1,10,03,27,273,40,06,32,255,34,09,31,068,43,14,53,215,39*71
$GPGSV,3,2,10,15,12,047,37,18,62,051,44,19,26,303,45,21,46,140,38*72
$GPGSV,3,3,10,22,63,310,47,24,32,074,41,,,,,,,,*7D
$GPGSA,A,3,22,21,18,06,09,03,24,14,19,15,,,2.0,1.1,1.7*3F
$GPRMC,234942.000,A,3945.015,N,10512.990,W,14.7,139.9,251112,7.0,E*4B
$GPGGA,234942.000,3945.01506,N,10512.98999,W,1,10,1.1,1749.81,M,-20.7,M,,*69
$GPVTG,139.9,T,146.9,M,14.7,N,27.2,K*43
$GPGSV,3,1,10,03,27,273,36,06,32,255,41,09,31,068,44,14,53,215,39*75
$GPGSV,3,2,10,15,12,047,41,18,62,051,44,19,26,303,45,21,46,140,38*73
$GPGSV,3,3,10,22,63,310,47,24,32,074,43,,,,,,,,*7F
$PSTMECH,22,7,21,7,18,7,06,7,09,7,03,7,24,7,14,7,19,7,15,7,00,0,00,0*5D
$GPRMC,234943.000,A,3945.012,N,10512.987,W,14.6,141.0,251112,7.0,E*4C
$GPGGA,234943.000,3945.01188,N,10512.98684,W,1,10,1.1,1749.91,M,-20.7,M,,*68
$GPVTG,141.0,T,147.9,M,14.6,N,27.0,K*47
$GPGSV,3,1,10,03,27,273,38,06,32,255,41,09,31,068,44,14,53,215,38*7A
$GPGSV,3,2,10,15,12,047,43,18,62,051,45,19,26,303,46,21,46,140,39*72
$GPGSV,3,3,10,22,63,310,46,24,32,074,42,,,,,,,,*7F
$GPGSA,A,3,22,21,18,06,09,03,24,14,19,15,,,2.0,1.1,1.7*3F
$GPRMC,234944.000,A,3945.009,N,10512.984,W,13.9,141.9,251112,7.0,E*43
$GPGGA,234944.000,3945.00890,N,10512.98399,W,1,10,1.1,1749.86,M,-20.7,M,,*61
$GPVTG,141.9,T,148.9,M,13.9,N,25.7,K*4C
$GPGSV,3,1,10,03,27,273,39,06,32,255,37,09,31,068,44,14,53,215,40*75
$GPGSV,3,2,10,15,12,047,41,18,62,051,45,19,26,303,45,21,46,140,39*73
$GPGSV,3,3,10,22,63,310,46,24,32,074,42,,,,,,,,*7F
$PSTMECH,22,7,21,7,18,7,06,7,09,7,03,7,24,7,14,7,19,7,15,7,00,0,00,0*5D
$GPRMC,234945.000,A,3945.006,N,10512.981,W,13.6,142.1,251112,7.0,E*4C
$GPGGA,234945.000,3945.00589,N,10512.98108,W,1,10,1.1,1749.72,M,-20.7,M,,*64
$GPVTG,142.1,T,149.1,M,13.6,N,25.3,K*45
$GPGSV,3,1,10,03,27,273,33,06,32,255,42,09,31,068,44,14,53,215,40*7D
$GPGSV,3,2,10,15,12,047,40,18,62,051,45,19,26,303,46,21,46,140,39*71
$GPGSV,3,3,10,22,63,310,46,24,32,074,42,,,,,,,,*7F
$GPGSA,A,3,22,21,18,06,09,03,24,14,19,15,,,2.0,1.1,1.7*3F
$GPRMC,234946.000,A,3945.003,N,10512.979,W,13.0,143.8,251112,7.0,E*43
$GPGGA,234946.000,3945.00298,N,10512.97853,W,1,10,1.1,1749.49,M,-20.7,M,,*60
$GPVTG,143.8,T,150.8,M,13.0,N,24.2,K*4A
$GPGSV,3,1,10,03,27,273,38,06,32,255,44,09,31,068,44,14,53,215,40*70
$GPGSV,3,2,10,15,12,047,40,18,62,051,46,19,26,303,46,21,46,140,40*7C
$GPGSV,3,3,10,22,63,310,44,24,32,074,42,,,,,,,,*7D
$PSTMECH,22,7,21,7,18,7,06,7,09,7,03,7,24,7,14,7,19,7,15,7,00,0,00,0*5D
$GPRMC,234947.000,A,3945.000,N,10512.976,W,12.1,143.9,251112,7.0,E*4F
$GPGGA,234947.000,3945.00035,N,10512.97614,W,1,10,1.1,1749.32,M,-20.7,M,,*65
$GPVTG,143.9,T,150.9,M,12.1,N,22.4,K*4A
$GPGSV,3,1,10,03,27,273,41,06,32,255,41,09,31,068,43,14,53,215,39*72
$GPGSV,3,2,10,15,12,047,40,18,62,051,45,19,26,303,45,21,46,140,39*72
$GPGSV,3,3,10,22,63,310,44,24,32,074,42,,,,,,,,*7D
$GPGSA,A,3,22,21,18,06,09,03,24,14,19,15,,,2.0,1.1,1.7*3F
$GPRMC,234948.000,A,3944.998,N,10512.974,W,10.6,143.8,251112,7.0,E*4F
$GPGGA,234948.000,3944.99818,N,10512.97415,W,1,10,1.1,1749.16,M,-20.7,M,,*69
$GPVTG,143.8,T,150.8,M,10.6,N,19.6,K*45
$GPGSV,3,1,10,03,27,273,39,06,32,255,42,09,31,068,44,14,53,215,41*76
$GPGSV,3,2,10,15,12,047,43,18,62,051,46,19,26,303,45,21,46,140,40*7C
$GPGSV,3,3,10,22,63,310,44,24,32,074,42,,,,,,,,*7D
$PSTMECH,22,7,21,7,18,7,06,7,09,7,03,7,24,7,14,7,19,7,15,7,00,0,00,0*5D
$GPRMC,234949.000,A,3944.996,N,10512.972,W,9.1,143.1,251112,7.0,E*70
$GPGGA,234949.000,3944.99636,N,10512.97239,W,1,10,1.1,1749.10,M,-20.7,M,,*64
$GPVTG,143.1,T,150.1,M,9.1,N,16.9,K*7A
$GPGSV,3,1,10,03,27,273,37,06,32,255,42,09,31,068,44,14,53,215,40*79
$GPGSV,3,2,10,15,12,047,44,18,62,051,45,19,26,303,43,21,46,140,39*70
$GPGSV,3,3,10,22,63,310,45,24,32,074,42,,,,,,,,*7C
$GPGSA,A,3,22,21,18,06,09,03,24,14,19,15,,,2.0,1.1,1.7*3F
$GPRMC,234950.000,A,3944.994,N,10512.970,W,9.7,143.8,251112,7.0,E*77
$GPGGA,234950.000,3944.99407,N,10512.97033,W,1,10,1.1,1748.93,M,-20.7,M,,*6E
$GPVTG,143.8,T,150.8,M,9.7,N,17.9,K*7D
$GPGSV,3,1,10,03,27,273,36,06,32,255,45,09,31,068,44,14,53,215,39*71
$GPGSV,3,2,10,15,12,047,42,18,62,051,46,19,26,303,45,21,46,140,40*7D
$GPGSV,3,3,10,22,63,310,44,24,32,074,43,,,,,,,,*7C
$PSTMECH,22,7,21,7,18,7,06,7,09,7,03,7,24,7,14,7,19,7,15,7,00,0,00,0*5D
$GPRMC,234951.000,A,3944.992,N,10512.969,W,9.3,144.6,251112,7.0,E*75
$GPGGA,234951.000,3944.99198,N,10512.96856,W,1,10,1.1,1748.81,M,-20.7,M,,*65
$GPVTG,144.6,T,151.5,M,9.3,N,17.3,K*76
$GPGSV,3,1,10,03,27,273,40,06,32,255,44,09,31,068,44,14,53,215,40*7F
$GPGSV,3,2,10,15,12,047,44,18,62,051,46,19,26,303,45,21,46,140,39*75
$GPGSV,3,3,10,22,63,310,44,24,32,074,44,,,,,,,,*7B
$GPGSA,A,3,22,21,18,06,09,03,24,14,19,15,,,2.0,1.1,1.7*3F
$GPRMC,234952.000,A,3944.991,N,10512.967,W,7.7,144.7,251112,7.0,E*70
$GPGGA,234952.000,3944.99051,N,10512.96730,W,1,10,1.1,1748.70,M,-20.7,M,,*63
$GPVTG,144.7,T,151.7,M,7.7,N,14.2,K*7D
$GPGSV,3,1,10,03,27,273,39,06,32,255,43,09,31,068,43,14,53,215,40*71
$GPGSV,3,2,10,15,12,047,46,18,62,051,45,19,26,303,45,21,46,140,39*74
$GPGSV,3,3,10,22,63,310,45,24,32,074,43,,,,,,,,*7D
$PSTMECH,22,7,21,7,18,7,06,7,09,7,03,7,24,7,14,7,19,7,15,7,00,0,00,0*5D
$GPRMC,234953.000,A,3944.990,N,10512.967,W,4.9,144.4,251112,7.0,E*7E
$GPGGA,234953.000,3944.98982,N,10512.96667,W,1,10,1.1,1748.52,M,-20.7,M,,*67
$GPVTG,144.4,T,151.4,M,4.9,N,9.1,K*4F
$GPGSV,3,1,10,03,27,273,40,06,32,255,42,09,31,068,45,14,53,215,41*79
$GPGSV,3,2,10,15,12,047,42,18,62,051,45,19,26,303,46,21,46,140,40*7D
$GPGSV,3,3,10,22,63,310,44,24,32,074,43,,,,,,,,*7C
$GPGSA,A,3,22,21,18,06,09,03,24,14,19,15,,,2.0,1.1,1.7*3F
$GPRMC,234954.000,A,3944.990,N,10512.967,W,1.8,145.0,251112,7.0,E*78
$GPGGA,234954.000,3944.98992,N,10512.96685,W,1,10,1.1,1748.51,M,-20.7,M,,*6E
$GPVTG,145.0,T,152.0,M,1.8,N,3.4,K*46
$GPGSV,3,1,10,03,27,273,40,06,32,255,37,09,31,068,44,14,53,215,41*7A
$GPGSV,3,2,10,15,12,047,41,18,62,051,45,19,26,303,44,21,46,140,40*7C
$GPGSV,3,3,10,22,63,310,44,24,32,074,42,,,,,,,,*7D
$PSTMECH,22,7,21,7,18,7,06,7,09,7,03,7,24,7,14,7,19,7,15,7,00,0,00,0*5D
$GPRMC,234955.000,A,3944.989,N,10512.966,W,2.2,143.6,251112,7.0,E*79
$GPGGA,234955.000,3944.98937,N,10512.96638,W,1,10,1.1,1748.54,M,-20.7,M,,*63
$GPVTG,143.6,T,150.6,M,2.2,N,4.1,K*49
$GPGSV,3,1,10,03,27,273,42,06,32,255,37,09,31,068,45,14,53,215,42*7A
$GPGSV,3,2,10,15,12,047,43,18,62,051,46,19,26,303,43,21,46,140,40*7A
$GPGSV,3,3,10,22,63,310,45,24,32,074,42,,,,,,,,*7C
$GPGSA,A,3,22,21,18,06,09,03,24,14,19,15,,,2.0,1.1,1.7*3F
$GPRMC,234956.000,A,3944.989,N,10512.966,W,0.7,141.5,251112,7.0,E*7C
$GPGGA,234956.000,3944.98947,N,10512.96643,W,1,10,1.1,1748.53,M,-20.7,M,,*6C
$GPVTG,141.5,T,148.5,M,0.7,N,1.3,K*42
$GPGSV,3,1,10,03,27,273,42,06,32,255,39,09,31,068,46,14,53,215,40*75
$GPGSV,3,2,10,15,12,047,44,18,62,051,45,19,26,303,42,21,46,140,41*7E
$GPGSV,3,3,10,22,63,310,45,24,32,074,41,,,,,,,,*7F
$PSTMECH,22,7,21,7,18,7,06,7,09,7,03,7,24,7,14,7,19,7,15,7,00,0,00,0*5D
$GPRMC,234957.000,A,3944.990,N,10512.967,W,0.1,0.0,251112,7.0,E*73
$GPGGA,234957.000,3944.98960,N,10512.96665,W,1,10,1.1,1748.43,M,-20.7,M,,*6D
$GPVTG,0.0,T,7.0,M,0.1,N,0.1,K*49
$GPGSV,3,1,10,03,27,273,42,06,32,255,38,09,31,068,46,14,53,215,41*75
$GPGSV,3,2,10,15,12,047,44,18,62,051,45,19,26,303,42,21,46,140,40*7F
$GPGSV,3,3,10,22,63,310,45,24,32,074,41,,,,,,,,*7F
$GPGSA,A,3,22,21,18,06,09,03,24,14,19,15,,,2.0,1.1,1.7*3F
$GPRMC,234958.000,A,3944.990,N,10512.967,W,0.1,0.0,251112,7.0,E*7C
$GPGGA,234958.000,3944.98962,N,10512.96679,W,1,10,1.1,1748.37,M,-20.7,M,,*6E
$GPVTG,0.0,T,7.0,M,0.1,N,0.1,K*49
$GPGSV,3,1,10,03,27,273,43,06,32,255,38,09,31,068,45,14,53,215,41*77
$GPGSV,3,2,10,15,12,047,44,18,62,051,45,19,26,303,41,21,46,140,41*7D
$GPGSV,3,3,10,22,63,310,45,24,32,074,41,,,,,,,,*7F
$PSTMECH,22,7,21,7,18,7,06,7,09,7,03,7,24,7,14,7,19,7,15,7,00,0,00,0*5D
$GPRMC,234959.000,A,3944.990,N,10512.967,W,0.0,0.0,251112,7.0,E*7C
$GPGGA,234959.000,3944.98961,N,10512.96677,W,1,10,1.1,1748.30,M,-20.7,M,,*65
$GPVTG,0.0,T,7.0,M,0.0,N,0.0,K*49
$GPGSV,3,1,10,03,27,273,42,06,32,255,38,09,31,068,46,14,53,215,41*75
$GPGSV,3,2,10,15,12,047,44,18,62,051,45,19,26,303,41,21,46,140,40*7C
$GPGSV,3,3,10,22,63,310,44,24,32,074,42,,,,,,,,*7D
$GPGSA,A,3,22,21,18,06,09,03,24,14,19,15,,,2.0,1.1,1.7*3F
$GPRMC,235000.000,A,3944.990,N,10512.967,W,0.0,0.0,251112,7.0,E*78
$GPGGA,235000.000,3944.98963,N,10512.96686,W,1,10,1.1,1748.14,M,-20.7,M,,*6B
$GPVTG,0.0,T,7.0,M,0.0,N,0.0,K*49
$GPGSV,3,1,10,03,27,273,42,06,32,255,38,09,31,068,46,14,53,215,41*75
$GPGSV,3,2,10,15,12,047,44,18,62,051,45,19,26,303,41,21,46,140,39*72
$GPGSV,3,3,10,22,63,310,44,24,32,074,42,,,,,,,,*7D
$PSTMECH,22,7,21,7,18,7,06,7,09,7,03,7,24,7,14,7,19,7,15,7,00,0,00,0*5D
$GPRMC,235001.000,A,3944.990,N,10512.967,W,0.0,0.0,251112,7.0,E*79
$GPGGA,235001.000,3944.98965,N,10512.96694,W,1,10,1.1,1748.01,M,-20.7,M,,*6B
$GPVTG,0.0,T,7.0,M,0.0,N,0.0,K*49
$GPGSV,3,1,10,03,27,273,42,06,32,255,38,09,31,068,45,14,53,215,41*76
$GPGSV,3,2,10,15,12,047,44,18,62,051,46,19,26,303,41,21,46,140,39*71
$GPGSV,3,3,10,22,63,310,44,24,32,074,42,,,,,,,,*7D
$GPGSA,A,3,22,21,18,06,09,03,24,14,19,15,,,2.0,1.1,1.7*3F
$GPRMC,235002.000,A,3944.990,N,10512.967,W,0.0,0.0,251112,7.0,E*7A
$GPGGA,235002.000,3944.98965,N,10512.96694,W,1,10,1.1,1748.01,M,-20.7,M,,*68
$GPVTG,0.0,T,7.0,M,0.0,N,0.1,K*48
$GPGSV,3,1,10,03,27,273,42,06,32,255,38,09,31,068,45,14,53,215,41*76
$GPGSV,3,2,10,15,12,047,44,18,62,051,46,19,26,303,40,21,46,140,39*70
$GPGSV,3,3,10,22,63,310,44,24,32,074,43,,,,,,,,*7C
$PSTMECH,22,7,21,7,18,7,06,7,09,7,03,7,24,7,14,7,19,7,15,7,00,0,00,0*5D
$GPRMC,235003.000,A,3944.990,N,10512.967,W,0.1,0.0,251112,7.0,E*7A
$GPGGA,235003.000,3944.98973,N,10512.96693,W,1,10,1.1,1747.98,M,-20.7,M,,*66
$GPVTG,0.0,T,7.0,M,0.1,N,0.1,K*49
$GPGSV,3,1,10,03,27,273,42,06,32,255,37,09,31,068,45,14,53,215,40*78
$GPGSV,3,2,10,15,12,047,44,18,62,051,45,19,26,303,41,21,46,140,40*7C
$GPGSV,3,3,10,22,63,310,45,24,32,074,42,,,,,,,,*7C
$GPGSA,A,3,22,21,18,06,09,03,24,14,19,15,,,2.0,1.1,1.7*3F
$GPRMC,235004.000,A,3944.990,N,10512.967,W,0.0,0.0,251112,7.0,E*7C
$GPGGA,235004.000,3944.98977,N,10512.96693,W,1,10,1.1,1747.93,M,-20.7,M,,*6E
$GPVTG,0.0,T,7.0,M,0.0,N,0.0,K*49
$GPGSV,3,1,10,03,27,273,42,06,32,255,37,09,31,068,44,14,53,215,41*78
$GPGSV,3,2,10,15,12,047,44,18,62,051,45,19,26,303,41,21,46,140,40*7C
$GPGSV,3,3,10,22,63,310,45,24,32,074,43,,,,,,,,*7D
$PSTMECH,22,7,21,7,18,7,06,7,09,7,03,7,24,7,14,7,19,7,15,7,00,0,00,0*5D
$GPRMC,235005.000,A,3944.990,N,10512.967,W,0.0,0.0,251112,7.0,E*7D
$GPGGA,235005.000,3944.98985,N,10512.96697,W,1,10,1.1,1747.89,M,-20.7,M,,*6D
$GPVTG,0.0,T,7.0,M,0.0,N,0.1,K*48
$GPGSV,3,1,10,03,27,273,43,06,32,255,37,09,31,068,44,14,53,215,41*79
$GPGSV,3,2,10,15,12,047,44,18,62,051,45,19,26,303,41,21,46,140,40*7C
$GPGSV,3,3,10,22,63,310,44,24,32,074,43,,,,,,,,*7C
$GPGSA,A,3,22,21,18,06,09,03,24,14,19,15,,,2.0,1.1,1.7*3F
$GPRMC,235006.000,A,3944.990,N,10512.967,W,0.1,0.0,251112,7.0,E*7F
$GPGGA,235006.000,3944.98990,N,10512.96695,W,1,10,1.1,1747.85,M,-20.7,M,,*64
$GPVTG,0.0,T,7.0,M,0.1,N,0.1,K*49
$GPGSV,3,1,10,03,27,273,42,06,32,255,38,09,31,068,44,14,53,215,41*77
$GPGSV,3,2,10,15,12,047,42,18,62,051,46,19,26,303,41,21,46,140,40*79
$GPGSV,3,3,10,22,63,310,45,24,32,074,44,,,,,,,,*7A
$PSTMECH,22,7,21,7,18,7,06,7,09,7,03,7,24,7,14,7,19,7,15,7,00,0,00,0*5D
$GPRMC,235007.000,A,3944.990,N,10512.967,W,0.0,0.0,251112,7.0,E*7F
$GPGGA,235007.000,3944.98990,N,10512.96694,W,1,10,1.1,1747.88,M,-20.7,M,,*69
$GPVTG,0.0,T,7.0,M,0.0,N,0.0,K*49
$GPGSV,3,1,10,03,27,273,41,06,32,255,38,09,31,068,44,14,53,215,41*74
$GPGSV,3,2,10,15,12,047,44,18,62,051,46,19,26,303,38,21,46,140,40*71
$GPGSV,3,3,10,22,63,310,45,24,32,074,43,,,,,,,,*7D
$GPGSA,A,3,22,21,18,06,09,03,24,14,19,15,,,2.0,1.1,1.7*3F
$GPRMC,235008.000,A,3944.990,N,10512.967,W,0.4,136.5,251112,7.0,E*75
$GPGGA,235008.000,3944.98977,N,10512.96678,W,1,10,1.1,1747.80,M,-20.7,M,,*65
$GPVTG,136.5,T,143.5,M,0.4,N,0.8,K*40
$GPGSV,3,1,10,03,27,273,41,06,32,254,40,09,31,068,44,14,53,215,41*7A
$GPGSV,3,2,10,15,12,047,44,18,62,051,45,19,26,303,41,21,46,140,39*72
$GPGSV,3,3,10,22,63,310,44,24,32,074,42,,,,,,,,*7D
$PSTMECH,22,7,21,7,18,7,06,7,09,7,03,7,24,7,14,7,19,7,15,7,00,0,00,0*5D
$GPRMC,235009.000,A,3944.988,N,10512.965,W,5.9,143.1,251112,7.0,E*71
$GPGGA,235009.000,3944.98765,N,10512.96477,W,1,10,1.1,1747.59,M,-20.7,M,,*60
$GPVTG,143.1,T,150.1,M,5.9,N,10.9,K*78
$GPGSV,3,1,10,03,27,273,37,06,32,254,34,09,31,068,43,14,53,215,42*7C
$GPGSV,3,2,10,15,12,047,44,18,62,051,44,19,26,303,44,21,46,140,40*78
$GPGSV,3,3,10,22,63,310,46,24,32,074,39,,,,,,,,*73
$GPGSA,A,3,22,21,18,06,09,03,24,14,19,15,,,2.0,1.1,1.7*3F
$GPRMC,235010.000,A,3944.986,N,10512.962,W,8.6,128.3,251112,7.0,E*7D
$GPGGA,235010.000,3944.98603,N,10512.96162,W,1,10,1.1,1747.45,M,-20.7,M,,*65
$GPVTG,128.3,T,135.3,M,8.6,N,16.0,K*7B
$GPGSV,3,1,10,03,27,273,41,06,32,254,41,09,31,068,41,14,53,215,41*7E
$GPGSV,3,2,10,15,12,047,40,18,62,051,44,19,26,303,45,21,46,140,41*7C
$GPGSV,3,3,10,22,63,310,46,24,32,074,40,,,,,,,,*7D
$PSTMECH,22,7,21,7,18,7,06,7,09,7,03,7,24,7,14,7,19,7,15,7,00,0,00,0*5D
$GPRMC,235011.000,A,3944.986,N,10512.957,W,11.0,106.4,251112,7.0,E*4F
$GPGGA,235011.000,3944.98554,N,10512.95708,W,1,10,1.1,1747.21,M,-20.7,M,,*6E
$GPVTG,106.4,T,113.3,M,11.0,N,20.4,K*4B
$GPGSV,3,1,10,03,27,273,40,06,32,254,45,09,31,068,41,14,53,215,41*7B
$GPGSV,3,2,10,15,12,047,40,18,62,051,44,19,26,303,44,21,46,140,41*7D
$GPGSV,3,3,10,22,63,310,43,24,32,074,40,,,,,,,,*78
$GPGSA,A,3,22,21,18,06,09,03,24,14,19,15,,,2.0,1.1,1.7*3F
$GPRMC,235012.000,A,3944.987,N,10512.952,W,12.5,80.9,251112,7.0,E*7C
$GPGGA,235012.000,3944.98696,N,10512.95232,W,1,10,1.1,1746.55,M,-20.7,M,,*6E
$GPVTG,80.9,T,87.9,M,12.5,N,23.2,K*4C
$GPGSV,3,1,10,03,27,273,39,06,32,254,45,09,31,068,43,14,53,215,43*75
$GPGSV,3,2,10,15,12,047,37,18,62,051,47,19,26,303,41,21,46,140,40*7A
$GPGSV,3,3,10,22,63,310,45,24,32,074,38,,,,,,,,*71
$PSTMECH,22,7,21,7,18,7,06,7,09,7,03,7,24,7,14,7,19,7,15,7,00,0,00,0*5D
$GPRMC,235013.000,A,3944.990,N,10512.948,W,14.4,58.4,251112,7.0,E*7F
$GPGGA,235013.000,3944.99000,N,10512.94800,W,1,10,1.1,1745.92,M,-20.7,M,,*65
$GPVTG,58.4,T,65.4,M,14.4,N,26.6,K*43
$GPGSV,3,1,10,03,27,273,44,06,32,254,44,09,31,068,37,14,53,215,42*7C
$GPGSV,3,2,10,15,12,047,41,18,62,051,49,19,26,303,42,21,46,140,39*78
$GPGSV,3,3,10,22,63,310,46,24,32,074,34,,,,,,,,*7E
$GPGSA,A,3,22,21,18,06,09,03,24,14,19,15,,,2.0,1.1,1.7*3F
$GPRMC,235014.000,A,3944.993,N,10512.943,W,16.3,56.1,251112,7.0,E*7E
$GPGGA,235014.000,3944.99273,N,10512.94274,W,1,10,1.1,1745.09,M,-20.7,M,,*6F
$GPVTG,56.1,T,63.1,M,16.3,N,30.1,K*4E
$GPGSV,3,1,10,03,27,273,44,06,32,254,44,09,31,067,35,14,53,215,41*72
$GPGSV,3,2,10,15,12,047,40,18,62,051,47,19,26,303,40,21,46,140,39*75
$GPGSV,3,3,10,22,63,310,45,24,32,074,32,,,,,,,,*7B
$PSTMECH,22,7,21,7,18,7,06,7,09,7,03,7,24,7,14,7,19,7,15,7,00,0,00,0*5D
$GPRMC,235015.000,A,3944.996,N,10512.937,W,18.1,55.5,251112,7.0,E*72
$GPGGA,235015.000,3944.99576,N,10512.93693,W,1,10,1.1,1744.28,M,-20.7,M,,*64
$GPVTG,55.5,T,62.5,M,18.1,N,33.5,K*47
$GPGSV,3,1,10,03,27,273,42,06,32,254,43,09,31,067,34,14,53,215,39*7D
$GPGSV,3,2,10,15,12,047,36,18,62,051,46,19,26,303,39,21,46,140,32*70
$GPGSV,3,3,10,22,63,310,44,24,32,074,32,,,,,,,,*7A
$GPGSA,A,3,22,21,18,06,09,03,24,14,19,15,,,2.0,1.1,1.7*3F
$GPRMC,235016.000,A,3944.999,N,10512.931,W,19.3,56.5,251112,7.0,E*78
$GPGGA,235016.000,3944.99876,N,10512.93079,W,1,10,1.1,1743.47,M,-20.7,M,,*66
$GPVTG,56.5,T,63.5,M,19.3,N,35.7,K*42
$GPGSV,3,1,10,03,27,273,43,06,32,254,42,09,31,067,37,14,53,215,41*71
$GPGSV,3,2,10,15,12,047,38,18,62,051,47,19,26,303,38,21,46,140,38*74
$GPGSV,3,3,10,22,63,310,45,24,32,074,33,,,,,,,,*7A
$PSTMECH,22,7,21,7,18,7,06,7,09,7,03,7,24,7,14,7,19,7,15,7,00,0,00,0*5D
$GPRMC,235017.000,A,3945.002,N,10512.925,W,20.1,56.1,251112,7.0,E*7A
$GPGGA,235017.000,3945.00199,N,10512.92456,W,1,10,1.1,1742.72,M,-20.7,M,,*61
$GPVTG,56.1,T,63.1,M,20.1,N,37.2,K*4D
$GPGSV,3,1,10,03,27,273,41,06,32,254,43,09,31,067,37,14,53,215,42*71
$GPGSV,3,2,10,15,12,047,37,18,62,051,47,19,26,303,38,21,46,140,39*7A
$GPGSV,3,3,10,22,63,310,45,24,32,074,33,,,,,,,,*7A
$GPGSA,A,3,22,21,18,06,09,03,24,14,19,15,,,2.0,1.1,1.7*3F
$GPRMC,235018.000,A,3945.005,N,10512.919,W,19.8,55.6,251112,7.0,E*7A
$GPGGA,235018.000,3945.00511,N,10512.91873,W,1,10,1.1,1742.08,M,-20.7,M,,*6F
$GPVTG,55.6,T,62.6,M,19.8,N,36.6,K*49
$GPGSV,3,1,10,03,27,273,40,06,32,254,43,09,31,067,37,14,53,215,41*73
$GPGSV,3,2,10,15,12,047,38,18,62,051,47,19,26,303,41,21,46,140,28*7B
$GPGSV,3,3,10,22,63,310,44,24,32,074,36,,,,,,,,*7E
$PSTMECH,22,7,21,7,18,7,06,7,09,7,03,7,24,7,14,7,19,7,15,7,00,0,00,0*5D
$GPRMC,235019.000,A,3945.008,N,10512.913,W,18.4,55.4,251112,7.0,E*73
$GPGGA,235019.000,3945.00786,N,10512.91350,W,1,10,1.1,1741.54,M,-20.7,M,,*62
$GPVTG,55.4,T,62.3,M,18.4,N,34.1,K*46
$GPGSV,3,1,10,03,27,273,43,06,32,254,43,09,31,067,38,14,53,215,42*7C
$GPGSV,3,2,10,15,12,047,37,18,62,051,48,19,26,303,40,21,46,140,29*7B
$GPGSV,3,3,10,22,63,310,45,24,32,074,36,,,,,,,,*7F
$GPGSA,A,3,22,21,18,06,09,03,24,14,19,15,,,2.0,1.1,1.7*3F
$GPRMC,235020.000,A,3945.010,N,10512.909,W,16.4,55.0,251112,7.0,E*71
$GPGGA,235020.000,3945.01029,N,10512.90899,W,1,10,1.1,1741.19,M,-20.7,M,,*6D
$GPVTG,55.0,T,61.9,M,16.4,N,30.3,K*43
$GPGSV,3,1,10,03,27,273,43,06,32,254,44,09,31,067,37,14,53,215,43*75
$GPGSV,3,2,10,15,12,047,39,18,62,051,48,19,26,303,41,21,46,140,40*7B
$GPGSV,3,3,10,22,63,310,45,24,32,074,36,,,,,,,,*7F
$PSTMECH,22,7,21,7,18,7,06,7,09,7,03,7,24,7,14,7,19,7,15,7,00,0,00,0*5D
$GPRMC,235021.000,A,3945.012,N,10512.905,W,13.8,55.4,251112,7.0,E*73
$GPGGA,235021.000,3945.01223,N,10512.90530,W,1,10,1.1,1740.83,M,-20.7,M,,*68
$GPVTG,55.4,T,62.4,M,13.8,N,25.7,K*40
$GPGSV,3,1,10,03,27,273,43,06,32,254,44,09,31,067,37,14,53,215,42*74
$GPGSV,3,2,10,15,12,047,39,18,62,051,48,19,26,303,43,21,46,140,41*78
$GPGSV,3,3,10,22,63,310,45,24,32,074,33,,,,,,,,*7A
$GPGSA,A,3,22,21,18,06,09,03,24,14,19,15,,,2.0,1.1,1.7*3F
$GPRMC,235022.000,A,3945.014,N,10512.903,W,10.7,55.1,251112,7.0,E*79
$GPGGA,235022.000,3945.01363,N,10512.90269,W,1,10,1.1,1740.59,M,-20.7,M,,*62
$GPVTG,55.1,T,62.1,M,10.7,N,19.7,K*43
$GPGSV,3,1,10,03,27,273,45,06,32,254,44,09,31,067,37,14,53,215,42*72
$GPGSV,3,2,10,15,12,047,39,18,62,051,49,19,26,303,43,21,46,140,41*79
$GPGSV,3,3,10,22,63,310,45,24,32,074,35,,,,,,,,*7C
$PSTMECH,22,7,21,7,18,7,06,7,09,7,03,7,24,7,14,7,19,7,15,7,00,0,00,0*5D
$GPRMC,235023.000,A,3945.014,N,10512.901,W,6.9,55.8,251112,7.0,E*4A
$GPGGA,235023.000,3945.01433,N,10512.90126,W,1,10,1.1,1740.42,M,-20.7,M,,*63
$GPVTG,55.8,T,62.8,M,6.9,N,12.8,K*7E
$GPGSV,3,1,10,03,27,273,44,06,32,254,44,09,31,067,38,14,53,215,41*7F
$GPGSV,3,2,10,15,12,047,36,18,62,051,49,19,26,303,44,21,46,140,41*71
$GPGSV,3,3,10,22,63,310,45,24,32,074,36,,,,,,,,*7F
$GPGSA,A,3,22,21,18,06,09,03,24,14,19,15,,,2.0,1.1,1.7*3F
$GPRMC,235024.000,A,3945.015,N,10512.901,W,3.6,55.0,251112,7.0,E*4E
$GPGGA,235024.000,3945.01460,N,10512.90081,W,1,10,1.1,1740.28,M,-20.7,M,,*62
$GPVTG,55.0,T,62.0,M,3.6,N,6.7,K*4E
$GPGSV,3,1,10,03,27,273,45,06,32,254,44,09,31,067,39,14,53,215,42*7C
$GPGSV,3,2,10,15,12,047,36,18,62,051,48,19,26,303,43,21,46,140,40*76
$GPGSV,3,3,10,22,63,310,45,24,32,074,37,,,,,,,,*7E
$PSTMECH,22,7,21,7,18,7,06,7,09,7,03,7,24,7,14,7,19,7,15,7,00,0,00,0*5D
$GPRMC,235025.000,A,3945.015,N,10512.899,W,4.2,57.1,251112,7.0,E*4F
$GPGGA,235025.000,3945.01533,N,10512.89933,W,1,10,1.1,1740.11,M,-20.7,M,,*66
$GPVTG,57.1,T,64.0,M,4.2,N,7.8,K*46
$GPGSV,3,1,10,03,27,273,44,06,32,254,46,09,31,067,42,14,53,215,41*70
$GPGSV,3,2,10,15,12,047,34,18,62,051,47,19,26,303,44,21,46,140,36*7D
$GPGSV,3,3,10,22,63,310,44,24,32,074,37,,,,,,,,*7F
$GPGSA,A,3,22,21,18,06,09,03,24,14,19,15,,,2.0,1.1,1.7*3F
$GPRMC,235026.000,A,3945.016,N,10512.895,W,9.1,76.8,251112,7.0,E*47
$GPGGA,235026.000,3945.01583,N,10512.89491,W,1,10,1.1,1740.29,M,-20.7,M,,*60
$GPVTG,76.8,T,83.8,M,9.1,N,16.8,K*73
$GPGSV,3,1,10,03,27,273,45,06,32,254,45,09,31,067,38,14,53,215,43*7D
$GPGSV,3,2,10,15,12,047,38,18,62,051,46,19,26,303,44,21,46,140,40*71
$GPGSV,3,3,10,22,63,310,44,24,32,074,37,,,,,,,,*7F
$PSTMECH,22,7,21,7,18,7,06,7,09,7,03,7,24,7,14,7,19,7,15,7,00,0,00,0*5D
$GPRMC,235027.000,A,3945.014,N,10512.891,W,11.0,108.6,251112,7.0,E*4E
$GPGGA,235027.000,3945.01385,N,10512.89071,W,1,10,1.1,1740.16,M,-20.7,M,,*67
$GPVTG,108.6,T,115.6,M,11.0,N,20.4,K*44
$GPGSV,3,1,10,03,27,273,45,06,32,254,38,09,31,067,42,14,53,215,41*78
$GPGSV,3,2,10,15,12,047,42,18,62,051,43,19,26,303,45,21,46,140,39*76
$GPGSV,3,3,10,22,63,310,45,24,32,074,39,,,,,,,,*70
$GPGSA,A,3,22,21,18,06,09,03,24,14,19,15,,,2.0,1.1,1.7*3F
$GPRMC,235028.000,A,3945.010,N,10512.888,W,12.9,135.9,251112,7.0,E*46
$GPGGA,235028.000,3945.01021,N,10512.88783,W,1,10,1.1,1740.35,M,-20.7,M,,*6F
$GPVTG,135.9,T,142.9,M,12.9,N,24.0,K*42
$GPGSV,3,1,10,03,27,273,39,06,32,254,40,09,31,067,43,14,53,215,38*73
$GPGSV,3,2,10,15,12,047,37,18,62,051,45,19,26,303,44,21,46,140,39*73
$GPGSV,3,3,10,22,63,310,46,24,32,074,43,,,,,,,,*7E
$PSTMECH,22,7,21,7,18,7,06,7,09,7,03,7,24,7,14,7,19,7,15,7,00,0,00,0*5D
$GPRMC,235029.000,A,3945.006,N,10512.885,W,14.9,142.7,251112,7.0,E*45
$GPGGA,235029.000,3945.00649,N,10512.88462,W,1,10,1.1,1740.40,M,-20.7,M,,*69
$GPVTG,142.7,T,149.6,M,14.9,N,27.5,K*48
$GPGSV,3,1,10,03,27,273,39,06,32,254,39,09,31,067,42,14,53,215,40*73
$GPGSV,3,2,10,15,12,047,44,18,62,051,45,19,26,303,46,21,46,140,40*7B
$GPGSV,3,3,10,22,63,310,47,24,32,074,42,,,,,,,,*7E
$GPGSA,A,3,22,21,18,06,09,03,24,14,19,15,,,2.0,1.1,1.7*3F
$GPRMC,235030.000,A,3945.002,N,10512.881,W,17.1,143.6,251112,7.0,E*46
$GPGGA,235030.000,3945.00231,N,10512.88077,W,1,10,1.1,1740.59,M,-20.7,M,,*62
$GPVTG,143.6,T,150.6,M,17.1,N,31.7,K*4E
$GPGSV,3,1,10,03,27,273,38,06,32,254,43,09,31,067,43,14,53,215,39*70
$GPGSV,3,2,10,15,12,047,41,18,62,051,47,19,26,303,46,21,46,140,40*7C
$GPGSV,3,3,10,22,63,310,47,24,32,074,42,,,,,,,,*7E
$PSTMECH,22,7,21,7,18,7,06,7,09,7,03,7,24,7,14,7,19,7,15,7,00,0,00,0*5D
$GPRMC,235031.000,A,3944.998,N,10512.877,W,19.0,144.3,251112,7.0,E*48
$GPGGA,235031.000,3944.99773,N,10512.87661,W,1,10,1.1,1740.65,M,-20.7,M,,*60
$GPVTG,144.3,T,151.3,M,19.0,N,35.1,K*45
$GPGSV,3,1,10,03,27,273,39,06,32,254,43,09,31,067,42,14,53,215,39*70
$GPGSV,3,2,10,15,12,047,40,18,62,051,45,19,26,303,46,21,46,140,40*7F
$GPGSV,3,3,10,22,63,310,47,24,32,074,41,,,,,,,,*7D
$GPGSA,A,3,22,21,18,06,09,03,24,14,19,15,,,2.0,1.1,1.7*3F
$GPRMC,235032.000,A,3944.993,N,10512.872,W,20.7,144.3,251112,7.0,E*48
$GPGGA,235032.000,3944.99280,N,10512.87205,W,1,10,1.1,1740.69,M,-20.7,M,,*60
$GPVTG,144.3,T,151.3,M,20.7,N,38.3,K*47
$GPGSV,3,1,10,03,27,273,39,06,32,254,42,09,31,067,42,14,53,215,39*71
$GPGSV,3,2,10,15,12,047,42,18,62,052,46,19,26,303,46,21,46,140,39*73
$GPGSV,3,3,10,22,63,310,46,24,32,074,41,,,,,,,,*7C
$PSTMECH,22,7,21,7,18,7,06,7,09,7,03,7,24,7,14,7,19,7,15,7,00,0,00,0*5D
$GPRMC,235033.000,A,3944.988,N,10512.867,W,21.8,144.3,251112,7.0,E*49
$GPGGA,235033.000,3944.98771,N,10512.86739,W,1,10,1.1,1740.80,M,-20.7,M,,*67
$GPVTG,144.3,T,151.3,M,21.8,N,40.3,K*46
$GPGSV,3,1,10,03,27,273,38,06,32,254,40,09,31,067,41,14,53,215,39*71
$GPGSV,3,2,10,15,12,047,40,18,62,052,44,19,26,303,46,21,46,140,39*73
$GPGSV,3,3,10,22,63,310,46,24,32,074,41,,,,,,,,*7C
$GPGSA,A,3,22,21,18,06,09,03,24,14,19,15,,,2.0,1.1,1.7*3F
$GPRMC,235034.000,A,3944.982,N,10512.863,W,22.5,144.9,251112,7.0,E*44
$GPGGA,235034.000,3944.98247,N,10512.86272,W,1,10,1.1,1740.92,M,-20.7,M,,*69
$GPVTG,144.9,T,151.9,M,22.5,N,41.6,K*4C
$GPGSV,3,1,10,03,27,273,39,06,32,254,41,09,31,067,43,14,53,215,39*73
$GPGSV,3,2,10,15,12,047,41,18,62,052,45,19,26,302,46,21,46,140,40*7C
$GPGSV,3,3,10,22,63,310,46,24,32,074,42,,,,,,,,*7F
$PSTMECH,22,7,21,7,18,7,06,7,09,7,03,7,24,7,14,7,19,7,15,7,00,0,00,0*5D
$GPRMC,235035.000,A,3944.977,N,10512.858,W,22.9,144.2,251112,7.0,E*40
$GPGGA,235035.000,3944.97728,N,10512.85777,W,1,10,1.1,1741.10,M,-20.7,M,,*63
$GPVTG,144.2,T,151.1,M,22.9,N,42.4,K*42
$GPGSV,3,1,10,03,27,273,39,06,32,254,41,09,31,067,43,14,53,215,39*73
$GPGSV,3,2,10,15,12,047,42,18,62,052,44,19,26,302,45,21,46,140,39*73
$GPGSV,3,3,10,22,63,310,46,24,32,074,41,,,,,,,,*7C
$GPGSA,A,3,22,21,18,06,09,03,24,14,19,15,,,2.0,1.1,1.7*3F
$GPRMC,235036.000,A,3944.972,N,10512.853,W,23.4,144.1,251112,7.0,E*42
$GPGGA,235036.000,3944.97190,N,10512.85276,W,1,10,1.1,1741.32,M,-20.7,M,,*61
$GPVTG,144.1,T,151.1,M,23.4,N,43.4,K*4C
$GPGSV,3,1,10,03,27,273,38,06,32,254,40,09,31,067,43,14,53,215,39*73
$GPGSV,3,2,10,15,12,047,41,18,62,052,44,19,26,302,46,21,46,140,39*73
$GPGSV,3,3,10,22,63,310,46,24,32,074,41,,,,,,,,*7C
$PSTMECH,22,7,21,7,18,7,06,7,09,7,03,7,24,7,14,7,19,7,15,7,00,0,00,0*5D
$GPRMC,235037.000,A,3944.966,N,10512.848,W,23.8,144.0,251112,7.0,E*41
$GPGGA,235037.000,3944.96648,N,10512.84764,W,1,10,1.1,1741.48,M,-20.7,M,,*69
$GPVTG,144.0,T,151.0,M,23.8,N,44.1,K*42
$GPGSV,3,1,10,03,27,273,34,06,32,254,34,09,31,067,38,14,53,215,35*7C
$GPGSV,3,2,10,15,12,047,38,18,62,052,40,19,26,302,40,21,46,140,36*70
$GPGSV,3,3,10,22,63,310,40,24,32,074,38,,,,,,,,*74
$GPGSA,A,3,22,21,18,06,09,03,24,14,19,15,,,2.0,1.1,1.7*3F
$GPRMC,235038.000,A,3944.961,N,10512.843,W,24.4,144.7,251112,7.0,E*4E
$GPGGA,235038.000,3944.96082,N,10512.84253,W,1,10,1.1,1741.62,M,-20.7,M,,*6F
$GPVTG,144.7,T,151.7,M,24.4,N,45.2,K*4B
$GPGSV,3,1,10,03,27,273,29,06,32,254,26,09,31,067,37,14,53,215,37*7E
$GPGSV,3,2,10,15,12,047,33,18,62,052,40,19,26,302,40,21,46,141,36*7A
$GPGSV,3,3,10,22,63,310,40,24,32,074,37,,,,,,,,*7B
$PSTMECH,22,7,21,7,18,7,06,7,09,7,03,7,24,7,14,7,19,7,15,7,00,0,00,0*5D
$GPRMC,235039.000,A,3944.955,N,10512.837,W,24.8,144.1,251112,7.0,E*41
$GPGGA,235039.000,3944.95518,N,10512.83717,W,1,10,1.1,1741.81,M,-20.7,M,,*64
$GPVTG,144.1,T,151.1,M,24.8,N,46.0,K*46
$GPGSV,3,1,10,03,27,273,28,06,32,254,32,09,31,067,34,14,53,215,33*7D
$GPGSV,3,2,10,15,12,047,28,18,62,052,39,19,26,302,37,21,46,141,35*7D
$GPGSV,3,3,10,22,63,310,40,24,32,074,30,,,,,,,,*7C
$GPGSA,A,3,22,21,18,06,09,03,24,14,19,15,,,2.0,1.1,1.7*3F
$GPRMC,235040.000,A,3944.949,N,10512.832,W,25.3,144.5,251112,7.0,E*49
$GPGGA,235040.000,3944.94936,N,10512.83183,W,1,10,1.1,1742.00,M,-20.7,M,,*6A
$GPVTG,144.5,T,151.5,M,25.3,N,46.9,K*45
$GPGSV,3,1,10,03,27,273,29,06,32,254,31,09,31,067,38,14,53,215,35*75
$GPGSV,3,2,10,15,12,047,29,18,62,052,40,19,26,302,39,21,46,141,36*7F
$GPGSV,3,3,10,22,63,311,42,24,32,074,37,,,,,,,,*78
$PSTMECH,22,7,21,7,18,7,06,7,09,7,03,7,24,7,14,7,19,7,15,7,00,0,00,0*5D
$GPRMC,235041.000,A,3944.943,N,10512.826,W,25.7,144.7,251112,7.0,E*41
$GPGGA,235041.000,3944.94344,N,10512.82641,W,1,10,1.1,1742.24,M,-20.7,M,,*6A
$GPVTG,144.7,T,151.7,M,25.7,N,47.7,K*4E
$GPGSV,3,1,10,03,27,273,33,06,32,254,31,09,31,067,41,14,53,215,35*70
$GPGSV,3,2,10,15,12,047,31,18,62,052,42,19,26,302,39,21,46,141,37*75
$GPGSV,3,3,10,22,63,311,44,24,32,074,39,,,,,,,,*70
$GPGSA,A,3,22,21,18,06,09,03,24,14,19,15,,,2.0,1.1,1.7*3F
$GPRMC,235042.000,A,3944.938,N,10512.821,W,26.0,143.6,251112,7.0,E*4B
$GPGGA,235042.000,3944.93762,N,10512.82070,W,1,10,1.1,1742.54,M,-20.7,M,,*6D
$GPVTG,143.6,T,150.6,M,26.0,N,48.2,K*46
$GPGSV,3,1,10,03,27,273,32,06,32,254,37,09,31,067,37,14,53,215,33*70
$GPGSV,3,2,10,15,12,047,34,18,62,052,44,19,26,302,41,21,46,141,38*76
$GPGSV,3,3,10,22,63,311,45,24,32,074,35,,,,,,,,*7D
$PSTMECH,22,7,21,7,18,7,06,7,09,7,03,7,24,7,14,7,19,7,15,7,00,0,00,0*5D
$GPRMC,235043.000,A,3944.932,N,10512.815,W,26.5,144.2,251112,7.0,E*41
$GPGGA,235043.000,3944.93157,N,10512.81507,W,1,10,1.1,1742.89,M,-20.7,M,,*6A
$GPVTG,144.2,T,151.1,M,26.5,N,49.1,K*44
$GPGSV,3,1,10,03,27,273,35,06,32,254,36,09,31,067,41,14,53,215,39*7D
$GPGSV,3,2,10,15,12,047,33,18,62,052,43,19,26,302,40,21,46,141,38*77
$GPGSV,3,3,10,22,63,311,46,24,32,074,40,,,,,,,,*7C
$GPGSA,A,3,22,21,18,06,09,03,24,14,19,15,,,2.0,1.1,1.7*3F
$GPRMC,235044.000,A,3944.926,N,10512.809,W,26.6,143.9,251112,7.0,E*41
$GPGGA,235044.000,3944.92557,N,10512.80941,W,1,10,1.1,1743.21,M,-20.7,M,,*64
$GPVTG,143.9,T,150.9,M,26.6,N,49.3,K*40
$GPGSV,3,1,10,03,27,273,37,06,32,254,40,09,31,067,41,14,53,215,39*7E
$GPGSV,3,2,10,15,12,047,37,18,62,052,45,19,26,302,43,21,46,141,39*77
$GPGSV,3,3,10,22,63,311,45,24,32,073,41,,,,,,,,*79
$PSTMECH,22,7,21,7,18,7,06,7,09,7,03,7,24,7,14,7,19,7,15,7,00,0,00,0*5D
$GPRMC,235045.000,A,3944.919,N,10512.804,W,27.0,144.2,251112,7.0,E*4A
$GPGGA,235045.000,3944.91942,N,10512.80365,W,1,10,1.1,1743.58,M,-20.7,M,,*6C
$GPVTG,144.2,T,151.1,M,27.0,N,50.0,K*49
$GPGSV,3,1,10,03,27,273,38,06,32,254,41,09,31,067,41,14,53,215,39*70
$GPGSV,3,2,10,15,12,047,39,18,62,052,44,19,26,302,45,21,46,141,39*7E
$GPGSV,3,3,10,22,63,311,46,24,32,073,42,,,,,,,,*79
$GPGSA,A,3,22,21,18,06,09,03,24,14,19,15,,,2.0,1.1,1.7*3F
$GPRMC,235046.000,A,3944.913,N,10512.798,W,27.3,144.1,251112,7.0,E*49
$GPGGA,235046.000,3944.91323,N,10512.79782,W,1,10,1.1,1744.03,M,-20.7,M,,*60
$GPVTG,144.1,T,151.0,M,27.3,N,50.5,K*4D
$GPGSV,3,1,10,03,27,273,34,06,32,254,39,09,31,067,39,14,53,215,39*7C
$GPGSV,3,2,10,15,12,047,37,18,62,052,44,19,26,302,46,21,46,141,40*7D
$GPGSV,3,3,10,22,63,311,46,24,32,073,37,,,,,,,,*7B
$PSTMECH,22,7,21,7,18,7,06,7,09,7,03,7,24,7,14,7,19,7,15,7,00,0,00,0*5D
$GPRMC,235047.000,A,3944.907,N,10512.792,W,27.6,143.7,251112,7.0,E*43
$GPGGA,235047.000,3944.90699,N,10512.79181,W,1,10,1.1,1744.48,M,-20.7,M,,*6E
$GPVTG,143.7,T,150.7,M,27.6,N,51.2,K*49
$GPGSV,3,1,10,03,27,273,34,06,32,254,33,09,31,067,37,14,53,215,38*79
$GPGSV,3,2,10,15,12,047,37,18,62,052,43,19,26,302,45,21,46,141,38*76
$GPGSV,3,3,10,22,63,311,45,24,32,073,38,,,,,,,,*77
$GPGSA,A,3,22,21,18,06,09,03,24,14,19,15,,,2.0,1.1,1.7*3F
$GPRMC,235048.000,A,3944.901,N,10512.786,W,27.9,144.6,251112,7.0,E*46
$GPGGA,235048.000,3944.90056,N,10512.78602,W,1,10,1.1,1744.86,M,-20.7,M,,*6B
$GPVTG,144.6,T,151.6,M,27.9,N,51.8,K*4A
$GPGSV,3,1,10,03,27,273,34,06,32,254,34,09,31,067,38,14,53,215,37*7E
$GPGSV,3,2,10,15,12,047,32,18,62,052,39,19,26,302,40,21,46,141,38*7B
$GPGSV,3,3,10,22,63,311,45,24,32,073,35,,,,,,,,*7A
$PSTMECH,22,7,21,7,18,7,06,7,09,7,03,7,24,7,14,7,19,7,15,7,00,0,00,0*5D
$GPRMC,235049.000,A,3944.894,N,10512.780,W,27.9,144.8,251112,7.0,E*42
$GPGGA,235049.000,3944.89422,N,10512.78024,W,1,10,1.1,1745.23,M,-20.7,M,,*69
$GPVTG,144.8,T,151.8,M,27.9,N,51.7,K*45
$GPGSV,3,1,10,03,27,273,37,06,32,254,37,09,31,067,42,14,53,215,38*7C
$GPGSV,3,2,10,15,12,047,25,18,62,052,43,19,26,302,40,21,46,141,39*71
$GPGSV,3,3,10,22,63,311,45,24,32,073,38,,,,,,,,*77
$GPGSA,A,3,22,21,18,06,09,03,24,14,19,15,,,2.0,1.1,1.7*3F
$GPRMC,235050.000,A,3944.888,N,10512.774,W,28.0,144.8,251112,7.0,E*4A
$GPGGA,235050.000,3944.88785,N,10512.77444,W,1,10,1.1,1745.66,M,-20.7,M,,*62
$GPVTG,144.8,T,151.8,M,28.0,N,51.8,K*4C
$GPGSV,3,1,10,03,27,273,38,06,32,254,41,09,31,067,39,14,53,215,39*7F
$GPGSV,3,2,10,15,12,047,29,18,62,052,44,19,26,302,43,21,46,141,40*77
$GPGSV,3,3,10,22,63,311,45,24,32,073,38,,,,,,,,*77
$PSTMECH,22,7,21,7,18,7,06,7,09,7,03,7,24,7,14,7,19,7,15,7,00,0,00,0*5D
$GPRMC,235051.000,A,3944.881,N,10512.768,W,28.2,144.5,251112,7.0,E*40
$GPGGA,235051.000,3944.88146,N,10512.76842,W,1,10,1.1,1746.08,M,-20.7,M,,*6A
$GPVTG,144.5,T,151.5,M,28.2,N,52.3,K*46
$GPGSV,3,1,10,03,27,273,37,06,32,254,36,09,31,067,40,14,53,215,37*70
$GPGSV,3,2,10,15,12,047,24,18,62,052,44,19,26,302,45,21,46,141,39*72
$GPGSV,3,3,10,22,63,311,46,24,32,073,40,,,,,,,,*7B
$GPGSA,A,3,22,21,18,06,09,03,24,14,19,15,,,2.0,1.1,1.7*3F
$GPRMC,235052.000,A,3944.875,N,10512.762,W,28.2,144.4,251112,7.0,E*43
$GPGGA,235052.000,3944.87511,N,10512.76246,W,1,10,1.1,1746.49,M,-20.7,M,,*6B
$GPVTG,144.4,T,151.4,M,28.2,N,52.3,K*46
$GPGSV,3,1,10,03,27,273,37,06,32,254,37,09,31,067,37,14,53,215,40*71
$GPGSV,3,2,10,15,12,047,29,18,62,052,44,19,26,302,43,21,46,141,39*79
$GPGSV,3,3,10,22,63,311,45,24,32,073,36,,,,,,,,*79
$PSTMECH,22,7,21,7,18,7,06,7,09,7,03,7,24,7,14,7,19,7,15,7,00,0,00,0*5D
$GPRMC,235053.000,A,3944.869,N,10512.757,W,28.2,144.3,251112,7.0,E*4E
$GPGGA,235053.000,3944.86875,N,10512.75652,W,1,10,1.1,1746.85,M,-20.7,M,,*66
$GPVTG,144.3,T,151.3,M,28.2,N,52.3,K*46
$GPGSV,3,1,10,03,27,273,38,06,32,254,40,09,31,067,40,14,53,215,40*7E
$GPGSV,3,2,10,15,12,047,32,18,62,052,45,19,26,302,42,21,46,141,40*7D
$GPGSV,3,3,10,22,63,311,46,24,32,073,39,,,,,,,,*75
$GPGSA,A,3,22,21,18,06,09,03,24,14,19,15,,,2.0,1.1,1.7*3F
$GPRMC,235054.000,A,3944.862,N,10512.750,W,28.2,143.7,251112,7.0,E*46
$GPGGA,235054.000,3944.86245,N,10512.75046,W,1,10,1.1,1747.12,M,-20.7,M,,*64
$GPVTG,143.7,T,150.7,M,28.2,N,52.3,K*40
$GPGSV,3,1,10,03,27,273,38,06,32,254,41,09,31,067,41,14,53,215,39*70
$GPGSV,3,2,10,15,12,047,26,18,62,052,45,19,26,302,44,21,46,141,38*71
$GPGSV,3,3,10,22,63,311,45,24,32,073,39,,,,,,,,*76
$PSTMECH,22,7,21,7,18,7,06,7,09,7,03,7,24,7,14,7,19,7,15,7,00,0,00,0*5D
$GPRMC,235055.000,A,3944.856,N,10512.745,W,28.4,144.2,251112,7.0,E*40
$GPGGA,235055.000,3944.85599,N,10512.74454,W,1,10,1.1,1747.37,M,-20.7,M,,*61
$GPVTG,144.2,T,151.2,M,28.4,N,52.6,K*45
$GPGSV,3,1,10,03,27,273,39,06,32,254,42,09,31,067,41,14,53,215,41*7D
$GPGSV,3,2,10,15,12,047,29,18,62,052,45,19,26,302,45,21,46,141,40*70
$GPGSV,3,3,10,22,63,311,46,24,32,073,41,,,,,,,,*7A
$GPGSA,A,3,22,21,18,06,09,03,24,14,19,15,,,2.0,1.1,1.7*3F
$GPRMC,235056.000,A,3944.850,N,10512.739,W,28.4,144.2,251112,7.0,E*4E
$GPGGA,235056.000,3944.84956,N,10512.73857,W,1,10,1.1,1747.65,M,-20.7,M,,*63
$GPVTG,144.2,T,151.1,M,28.4,N,52.7,K*47
$GPGSV,3,1,10,03,27,273,39,06,32,254,37,09,31,067,43,14,53,215,39*72
$GPGSV,3,2,10,15,12,047,34,18,62,052,45,19,26,302,46,21,46,141,40*7F
$GPGSV,3,3,10,22,63,311,47,24,32,073,41,,,,,,,,*7B
$PSTMECH,22,7,21,7,18,7,06,7,09,7,03,7,24,7,14,7,19,7,15,7,00,0,00,0*5D
$GPRMC,235057.000,A,3944.843,N,10512.733,W,28.4,144.5,251112,7.0,E*40
$GPGGA,235057.000,3944.84310,N,10512.73269,W,1,10,1.1,1747.99,M,-20.7,M,,*6E
$GPVTG,144.5,T,151.5,M,28.4,N,52.7,K*44
$GPGSV,3,1,10,03,27,273,34,06,32,254,34,09,31,067,41,14,53,215,40*70
$GPGSV,3,2,10,15,12,047,34,18,62,052,45,19,26,302,46,21,46,141,41*7E
$GPGSV,3,3,10,22,63,311,46,24,32,073,40,,,,,,,,*7B
$GPGSA,A,3,22,21,18,06,09,03,24,14,19,15,,,2.0,1.1,1.7*3F
$GPRMC,235058.000,A,3944.837,N,10512.727,W,28.4,144.4,251112,7.0,E*48
$GPGGA,235058.000,3944.83670,N,10512.72673,W,1,10,1.1,1748.25,M,-20.7,M,,*63
$GPVTG,144.4,T,151.4,M,28.4,N,52.6,K*45
$GPGSV,3,1,10,03,27,273,33,06,32,254,37,09,31,067,39,14,53,215,40*7B
